"stop_id","stop_name","stop_desc","stop_lat","stop_lon","stop_street","stop_city","stop_region","stop_postcode","stop_country"
10,"ANAHEIM-VERMONT",,"33.82344","-117.90981",,,,,
1000,"KRAEMER-BIRCH",,"33.91620","-117.86367",,,,,
1002,"KRAEMER-ORBITER",,"33.91356","-117.86403",,,,,
1003,"KRAEMER-IMPERIAL",,"33.91036","-117.86397",,,,,
1004,"KRAEMER-BUTTONWOOD",,"33.90801","-117.86398",,,,,
1005,"ORBITER-ENT 2830 PENNYSAVER",,"33.91447","-117.85916",,,,,
1006,"SATURN-IMPERIAL",,"33.91186","-117.85716",,,,,
1007,"RANDOLPH-BREA MALL",,"33.91366","-117.88963",,,,,
1008,"RANDOLPH-BIRCH",,"33.91757","-117.88985",,,,,
1009,"RANDOLPH-BREA MALL WAY",,"33.91393","-117.88986",,,,,
101,"BALL-BEACH",,"33.81751","-117.99429",,,,,
1010,"STATE COLLEGE-BREA MALL",,"33.91360","-117.88354",,,,,
1011,"STATE COLLEGE-BREA MALL",,"33.91492","-117.88289",,,,,
1012,"STATE COLLEGE-BIRCH",,"33.91831","-117.88284",,,,,
1013,"STATE COLLEGE-AVOCADO",,"33.92163","-117.88279",,,,,
1014,"STATE COLLEGE-LAMBERT",,"33.92453","-117.88260",,,,,
1015,"STATE COLLEGE-LAMBERT",,"33.92469","-117.88287",,,,,
1016,"STATE COLLEGE-AVOCADO",,"33.92184","-117.88294",,,,,
1017,"STATE COLLEGE-BIRCH",,"33.91782","-117.88309",,,,,
1018,"STATE COLLEGE-BREA MALL",,"33.91357","-117.88377",,,,,
1019,"STATE COLLEGE-BREA MALL",,"33.91295","-117.88561",,,,,
102,"BALL-HALLIDAY",,"33.81750","-117.99650",,,,,
1025,"VALENCIA-ENT 3202 OLINDA NURSERY",,"33.91477","-117.84925",,,,,
1026,"VALENCIA-NASA",,"33.91229","-117.85082",,,,,
1027,"VALENCIA-IMPERIAL",,"33.91031","-117.85212",,,,,
1029,"RING-BREA MALL",,"33.91539","-117.88364",,,,,
103,"BALL-WESTERN",,"33.81744","-118.00171",,,,,
1030,"RING-BREA MALL",,"33.91554","-117.88381",,,,,
1031,"183RD-LOS CERRITOS CENTER (NEARSIDE)",,"33.86552","-118.09552",,,,,
1032,"183RD-LOS CERRITOS CENTER (FARSIDE)",,"33.86553","-118.09430",,,,,
1033,"DEL AMO-MAMMOTH",,"33.84638","-118.05782",,,,,
1034,"DEL AMO-BLOOMFIELD",,"33.84625","-118.06358",,,,,
1035,"DEL AMO-CLARETTA",,"33.84628","-118.06795",,,,,
1036,"DEL AMO-NORWALK",,"33.84628","-118.07235",,,,,
1038,"DEL AMO-CABRILLO",,"33.84626","-118.08001",,,,,
1039,"GRIDLEY-SOUTH",,"33.85860","-118.09073",,,,,
104,"BALL-WESTVALE",,"33.81740","-118.00736",,,,,
1040,"GRIDLEY-187TH",,"33.86091","-118.09106",,,,,
1046,"SOUTH-GRIDLEY",,"33.85827","-118.09019",,,,,
1047,"SOUTH-PIONEER",,"33.85834","-118.08172",,,,,
1048,"SOUTH-ELY",,"33.85843","-118.06875",,,,,
1049,"SOUTH-STEFANI",,"33.85845","-118.06592",,,,,
105,"BALL-KNOTT",,"33.81735","-118.01176",,,,,
1050,"SOUTH-BLOOMFIELD",,"33.85846","-118.06322",,,,,
1051,"SOUTH-ALPHINGTON",,"33.85848","-118.05831",,,,,
1052,"SOUTH-VICKIE",,"33.85854","-118.05230",,,,,
1053,"SOUTH-PIRES",,"33.85854","-118.04959",,,,,
1054,"SOUTH-CARMENITA",,"33.85855","-118.04520",,,,,
1055,"SOUTH-CARMENITA",,"33.85879","-118.04647",,,,,
1056,"SOUTH-PIRES",,"33.85878","-118.05026",,,,,
1057,"SOUTH-VICKIE",,"33.85875","-118.05314",,,,,
1058,"SOUTH-ALFRED",,"33.85870","-118.05956",,,,,
1059,"SOUTH-BLOOMFIELD",,"33.85871","-118.06391",,,,,
106,"BEACH-BALL",,"33.81813","-117.99310",,,,,
1060,"SOUTH-STEFANI",,"33.85866","-118.06640",,,,,
1061,"SOUTH-ELY",,"33.85867","-118.06914",,,,,
1062,"SOUTH-PIONEER",,"33.85853","-118.08292",,,,,
1063,"SOUTH-GRIDLEY",,"33.85850","-118.08783",,,,,
1067,"17TH-PLACENTIA",,"33.63604","-117.93098",,,,,
1068,"17TH-POMONA",,"33.63607","-117.92709",,,,,
1069,"17TH-SUPERIOR",,"33.63603","-117.92327",,,,,
107,"BEACH-ROME",,"33.82059","-117.99315",,,,,
1070,"17TH-NEWPORT",,"33.63634","-117.92142",,,,,
1071,"17TH-ORANGE",,"33.63490","-117.91821",,,,,
1072,"17TH-SANTA ANA",,"33.63283","-117.91523",,,,,
1073,"17TH-TUSTIN",,"33.63050","-117.91187",,,,,
1074,"17TH-IRVINE",,"33.62864","-117.90922",,,,,
1075,"17TH-IRVINE",,"33.62893","-117.90911",,,,,
1076,"17TH-TUSTIN",,"33.63064","-117.91174",,,,,
1077,"17TH-SANTA ANA",,"33.63336","-117.91565",,,,,
1078,"17TH-ORANGE",,"33.63537","-117.91846",,,,,
1079,"17TH-NEWPORT",,"33.63658","-117.92097",,,,,
108,"BEACH-ORANGE",,"33.82545","-117.99317",,,,,
1080,"17TH-SUPERIOR",,"33.63631","-117.92393",,,,,
1081,"17TH-POMONA",,"33.63629","-117.92716",,,,,
109,"BEACH-YOUTH CENTER",,"33.82900","-117.99323",,,,,
1090,"19TH-POMONA",,"33.64329","-117.92709",,,,,
1091,"19TH-ANAHEIM",,"33.64331","-117.92285",,,,,
1096,"19TH-NEWPORT",,"33.64356","-117.91692",,,,,
1097,"19TH-HARBOR",,"33.64355","-117.92002",,,,,
1099,"19TH-MEYERS",,"33.64350","-117.92512",,,,,
11,"ANAHEIM-SOUTH",,"33.82660","-117.91086",,,,,
110,"BEACH-LINCOLN",,"33.83231","-117.99329",,,,,
1102,"ADAMS-ALBATROSS",,"33.67234","-117.94011",,,,,
1103,"ADAMS-PLACENTIA",,"33.67239","-117.93483",,,,,
1104,"ADAMS-MESA VERDE",,"33.67276","-117.92479",,,,,
1105,"ADAMS-ROYAL PALM",,"33.67317","-117.92241",,,,,
1106,"ADAMS-HARBOR",,"33.67314","-117.91875",,,,,
1107,"ADAMS-PINECREEK",,"33.67477","-117.91391",,,,,
1108,"ADAMS-FAIRVIEW",,"33.67580","-117.90882",,,,,
1109,"ADAMS-ENT 1250 OUR TOWN",,"33.67579","-117.91100",,,,,
111,"BEACH-LINCOLN",,"33.83154","-117.99372",,,,,
1110,"ADAMS-PINECREEK",,"33.67487","-117.91432",,,,,
1111,"ADAMS-HARBOR",,"33.67344","-117.91879",,,,,
1112,"ADAMS-ROYAL PALM",,"33.67338","-117.92253",,,,,
1113,"ADAMS-MESA VERDE",,"33.67300","-117.92500",,,,,
1114,"ADAMS-MESA VERDE",,"33.67265","-117.93600",,,,,
1115,"ADAMS-SHANTAR",,"33.67262","-117.94019",,,,,
1116,"ANTON-PARK CENTER",,"33.68997","-117.88244",,,,,
1117,"ANTON-SAKIOKA",,"33.69026","-117.87826",,,,,
1118,"ANTON-AVE OF THE ARTS",,"33.69032","-117.88168",,,,,
1119,"ANTON-PARK CENTER",,"33.69027","-117.88360",,,,,
112,"BEACH-YOUTH CENTER",,"33.82905","-117.99350",,,,,
1121,"AVE OF THE ARTS-SUNFLOWER",,"33.69411","-117.88114",,,,,
1122,"BAKER-COOLIDGE",,"33.68001","-117.90375",,,,,
1123,"BAKER-MENDOZA",,"33.68000","-117.90065",,,,,
1124,"BAKER-HYDE",,"33.67997","-117.89600",,,,,
1125,"BAKER-BEAR",,"33.67997","-117.89392",,,,,
1126,"BAKER-CENTURY",,"33.67998","-117.88981",,,,,
1132,"BAKER-RANDOLPH",,"33.68022","-117.88759",,,,,
1133,"BAKER-JEFFREY",,"33.68020","-117.89073",,,,,
1134,"BAKER-BEAR",,"33.68020","-117.89524",,,,,
1135,"BAKER-POWELL",,"33.68022","-117.89731",,,,,
1136,"BAKER-GRANT",,"33.68022","-117.90068",,,,,
1137,"BAKER-FAIRVIEW",,"33.68023","-117.90555",,,,,
1138,"BRISTOL-RED HILL",,"33.66710","-117.88250",,,,,
1139,"BRISTOL-RANDOLPH",,"33.67676","-117.88734",,,,,
114,"BEACH-ORANGE",,"33.82434","-117.99354",,,,,
1140,"BRISTOL-BAKER",,"33.68102","-117.88553",,,,,
1141,"BRISTOL-PAULARINO",,"33.68265","-117.88545",,,,,
1142,"BRISTOL-ANTON",,"33.69112","-117.88535",,,,,
1143,"BRISTOL-TOWN CENTER",,"33.69206","-117.88570",,,,,
1144,"BRISTOL-PAULARINO",,"33.68203","-117.88585",,,,,
1145,"BRISTOL-BAKER",,"33.68046","-117.88593",,,,,
1146,"BRISTOL-BAKER",,"33.67915","-117.88594",,,,,
1147,"BRISTOL-RANDOLPH",,"33.67676","-117.88774",,,,,
1148,"BRISTOL-BEAR",,"33.67441","-117.88930",,,,,
115,"BEACH-ROME",,"33.82046","-117.99352",,,,,
1155,"FAIR-FAIRVIEW",,"33.66372","-117.90633",,,,,
1156,"FAIR-ENT VANGUARD",,"33.66375","-117.90166",,,,,
1157,"DEL MAR-NEWPORT",,"33.66228","-117.89646",,,,,
1158,"DEL MAR-ORANGE",,"33.66055","-117.89395",,,,,
1159,"DEL MAR-SANTA ANA",,"33.65831","-117.89073",,,,,
116,"BEACH-BALL",,"33.81698","-117.99350",,,,,
1160,"DEL MAR-SANTA ANA",,"33.65854","-117.89069",,,,,
1161,"DEL MAR-ORANGE",,"33.66042","-117.89341",,,,,
1162,"DEL MAR-NEWPORT",,"33.66238","-117.89611",,,,,
1163,"FAIR-ENT 88 OC FAIRGROUNDS",,"33.66398","-117.90308",,,,,
1168,"FAIRVIEW-WILSON",,"33.65681","-117.90756",,,,,
117,"BROADWAY-ANAHEIM",,"33.83334","-117.91272",,,,,
1170,"FAIRVIEW-YORKTOWN",,"33.66097","-117.90760",,,,,
1171,"FAIRVIEW-FAIR",,"33.66425","-117.90752",,,,,
1172,"FAIRVIEW-MERRIMAC",,"33.66678","-117.90754",,,,,
1173,"FAIRVIEW-ARLINGTON",,"33.67026","-117.90760",,,,,
1174,"FAIRVIEW-EL CAMINO",,"33.67541","-117.90767",,,,,
1175,"FAIRVIEW-BAKER",,"33.67905","-117.90761",,,,,
1176,"FAIRVIEW-PAULARINO",,"33.68276","-117.90771",,,,,
1178,"FAIRVIEW-SOUTH COAST",,"33.69175","-117.90765",,,,,
1179,"FAIRVIEW-SUNFLOWER",,"33.69532","-117.90792",,,,,
118,"BROADWAY-KROEGER",,"33.83467","-117.90696",,,,,
1180,"FAIRVIEW-SOUTH COAST",,"33.69313","-117.90796",,,,,
1181,"FAIRVIEW-SOUTH COAST",,"33.69160","-117.90794",,,,,
1183,"FAIRVIEW-PAULARINO",,"33.68268","-117.90797",,,,,
1184,"FAIRVIEW-BAKER",,"33.68004","-117.90792",,,,,
1185,"FAIRVIEW-ADAMS",,"33.67509","-117.90800",,,,,
1186,"FAIRVIEW-ARLINGTON",,"33.66996","-117.90796",,,,,
1187,"FAIRVIEW-MERRIMAC",,"33.66784","-117.90794",,,,,
1188,"FAIRVIEW-FAIR",,"33.66341","-117.90784",,,,,
1189,"FAIRVIEW-LOYOLA",,"33.66071","-117.90785",,,,,
119,"BROADWAY-ATCHISON",,"33.83505","-117.90612",,,,,
1191,"FAIRVIEW-WILSON",,"33.65670","-117.90781",,,,,
1192,"HARBOR-BERNARD",,"33.64499","-117.91889",,,,,
1194,"HARBOR-BAY",,"33.64933","-117.91891",,,,,
1195,"HARBOR-VICTORIA",,"33.65349","-117.91897",,,,,
1196,"HARBOR-WILSON",,"33.65749","-117.91898",,,,,
1197,"HARBOR-ENT 2300 HARBOR CENTER",,"33.66015","-117.91902",,,,,
1198,"HARBOR-FAIR",,"33.66294","-117.91901",,,,,
1199,"HARBOR-MERRIMAC",,"33.66817","-117.91906",,,,,
12,"ANAHEIM-WATER",,"33.82879","-117.91157",,,,,
120,"BROOKHURST-KATELLA",,"33.80363","-117.95875",,,,,
1200,"HARBOR-PETERSON",,"33.67003","-117.91908",,,,,
1201,"HARBOR-ADAMS",,"33.67284","-117.91911",,,,,
1202,"HARBOR-PONDEROSA",,"33.67592","-117.91914",,,,,
1203,"HARBOR-BAKER",,"33.67973","-117.91912",,,,,
1204,"HARBOR-NUTMEG",,"33.68169","-117.91914",,,,,
1205,"HARBOR-GISLER",,"33.68573","-117.91923",,,,,
1206,"HARBOR-SOUTH COAST",,"33.69233","-117.91926",,,,,
1207,"HARBOR-MACARTHUR",,"33.70160","-117.91976",,,,,
1208,"HARBOR-SCENIC",,"33.69815","-117.91974",,,,,
1209,"HARBOR-SUNFLOWER",,"33.69601","-117.91972",,,,,
121,"BROOKHURST-CRESTWOOD",,"33.80667","-117.95875",,,,,
1210,"HARBOR-LAW COURT",,"33.69294","-117.91965",,,,,
1211,"HARBOR-GISLER",,"33.68582","-117.91962",,,,,
1212,"HARBOR-NUTMEG",,"33.68163","-117.91958",,,,,
1213,"HARBOR-BAKER",,"33.67884","-117.91953",,,,,
1214,"HARBOR-PONDEROSA",,"33.67542","-117.91942",,,,,
1215,"HARBOR-ADAMS",,"33.67244","-117.91950",,,,,
1216,"HARBOR-MESA VERDE EAST",,"33.67066","-117.91944",,,,,
1217,"HARBOR-MERRIMAC",,"33.66779","-117.91944",,,,,
1218,"HARBOR-FAIR",,"33.66262","-117.91942",,,,,
1219,"HARBOR-ENT 2300 HARBOR CENTER",,"33.65932","-117.91939",,,,,
122,"BROOKHURST-CERRITOS",,"33.81124","-117.95877",,,,,
1220,"HARBOR-WILSON",,"33.65541","-117.91930",,,,,
1221,"HARBOR-VICTORIA",,"33.65315","-117.91927",,,,,
1222,"HARBOR-BAY",,"33.64864","-117.91921",,,,,
1223,"HARBOR-FORD",,"33.64609","-117.91921",,,,,
1224,"HARBOR-19TH",,"33.64282","-117.91915",,,,,
1225,"HYLAND-SUNFLOWER",,"33.69598","-117.92486",,,,,
1226,"HYLAND-SCENIC",,"33.69960","-117.92565",,,,,
1227,"HYLAND-SCENIC",,"33.69898","-117.92589",,,,,
1228,"HYLAND-SUNFLOWER",,"33.69522","-117.92508",,,,,
1229,"HYLAND-ENT 3333 STATE FARM",,"33.69344","-117.92502",,,,,
123,"BROOKHURST-PALAIS",,"33.81427","-117.95879",,,,,
1230,"MACARTHUR-HYLAND",,"33.70179","-117.92821",,,,,
1231,"MACARTHUR-HYLAND",,"33.70181","-117.92511",,,,,
1232,"MACARTHUR-CRODDY",,"33.70186","-117.92242",,,,,
1233,"MAIN-SUNFLOWER",,"33.69389","-117.86846",,,,,
1234,"NEWPORT-17TH",,"33.63700","-117.92175",,,,,
1236,"NEWPORT-BROADWAY",,"33.64204","-117.91762",,,,,
1237,"NEWPORT-19TH",,"33.64396","-117.91576",,,,,
1239,"NEWPORT-BAY",,"33.64718","-117.91252",,,,,
124,"BROOKHURST-BALL",,"33.81879","-117.95879",,,,,
1240,"NEWPORT-21ST",,"33.64945","-117.91027",,,,,
1241,"NEWPORT-22ND",,"33.65118","-117.90859",,,,,
1242,"NEWPORT-23RD",,"33.65429","-117.90549",,,,,
1243,"NEWPORT-WILSON",,"33.65650","-117.90330",,,,,
1244,"NEWPORT-MONTE VISTA",,"33.66040","-117.89942",,,,,
1245,"NEWPORT-FAIR",,"33.66312","-117.89862",,,,,
1246,"NEWPORT-VANGUARD",,"33.65755","-117.90411",,,,,
1247,"NEWPORT-FAIRVIEW",,"33.65310","-117.90806",,,,,
1248,"NEWPORT-VICTORIA",,"33.65157","-117.90962",,,,,
1249,"NEWPORT-BAY",,"33.64891","-117.91224",,,,,
125,"BROOKHURST-BROOKMORE",,"33.82053","-117.95878",,,,,
1250,"NEWPORT-FORD",,"33.64547","-117.91534",,,,,
1251,"NEWPORT-19TH",,"33.64267","-117.91744",,,,,
1252,"NEWPORT-18TH",,"33.64026","-117.91990",,,,,
1257,"ORANGE-CABRILLO",,"33.63613","-117.91788",,,,,
1258,"ORANGE-18TH",,"33.63806","-117.91598",,,,,
126,"BROOKHURST-NIOBE",,"33.82295","-117.95880",,,,,
1260,"ORANGE-19TH",,"33.64065","-117.91342",,,,,
1261,"ORANGE-20TH",,"33.64358","-117.91049",,,,,
1262,"ORANGE-SIERKS",,"33.64463","-117.90945",,,,,
1263,"ORANGE-21ST",,"33.64636","-117.90773",,,,,
1264,"ORANGE-22ND",,"33.64917","-117.90493",,,,,
1265,"ORANGE-23RD",,"33.65234","-117.90178",,,,,
1266,"ORANGE-SANTA ISABEL",,"33.65509","-117.89903",,,,,
1267,"ORANGE-MONTE VISTA",,"33.65785","-117.89630",,,,,
1268,"ORANGE-DEL MAR",,"33.66011","-117.89407",,,,,
1269,"ORANGE-MONTE VISTA",,"33.65787","-117.89648",,,,,
127,"BROOKHURST-ORANGE",,"33.82556","-117.95878",,,,,
1270,"ORANGE-SANTA ISABEL",,"33.65479","-117.89964",,,,,
1271,"ORANGE-23RD",,"33.65230","-117.90202",,,,,
1272,"ORANGE-22ND",,"33.64952","-117.90480",,,,,
1273,"ORANGE-21ST",,"33.64668","-117.90759",,,,,
1274,"ORANGE-BAY",,"33.64498","-117.90930",,,,,
1275,"ORANGE-20TH",,"33.64362","-117.91064",,,,,
1276,"ORANGE-19TH",,"33.64118","-117.91308",,,,,
1278,"ORANGE-18TH",,"33.63799","-117.91624",,,,,
128,"BROOKHURST-BROADWAY",,"33.82842","-117.95881",,,,,
1280,"ORANGE-CABRILLO",,"33.63593","-117.91828",,,,,
1284,"PARK-18TH",,"33.64011","-117.92104",,,,,
1285,"PARK-19TH",,"33.64187","-117.92106",,,,,
1287,"PAULARINO-BRISTOL",,"33.68232","-117.88538",,,,,
1288,"PAULARINO-ENTERPRISE",,"33.68229","-117.88215",,,,,
1289,"PAULARINO-ENTERPRISE",,"33.68243","-117.88230",,,,,
129,"BROOKHURST-LINCOLN",,"33.83316","-117.95883",,,,,
1290,"PLACENTIA-16TH",,"33.63282","-117.93178",,,,,
1291,"PLACENTIA-17TH",,"33.63679","-117.93182",,,,,
1292,"PLACENTIA-18TH",,"33.63955","-117.93187",,,,,
1293,"PLACENTIA-19TH",,"33.64241","-117.93189",,,,,
1294,"PLACENTIA-20TH",,"33.64683","-117.93194",,,,,
1295,"PLACENTIA-VICTORIA",,"33.65181","-117.93197",,,,,
1296,"PLACENTIA-WILSON",,"33.65501","-117.93227",,,,,
1297,"PLACENTIA-VICTORIA",,"33.65143","-117.93220",,,,,
1298,"PLACENTIA-20TH",,"33.64651","-117.93216",,,,,
1299,"PLACENTIA-19TH",,"33.64260","-117.93210",,,,,
13,"ANAHEIM-SANTA ANA",,"33.83152","-117.91247",,,,,
130,"BROOKHURST-CATALINA",,"33.83653","-117.95888",,,,,
1300,"PLACENTIA-18TH",,"33.63936","-117.93207",,,,,
1301,"PLACENTIA-17TH",,"33.63540","-117.93202",,,,,
1302,"PLACENTIA-16TH",,"33.63215","-117.93198",,,,,
131,"BROOKHURST-CRESCENT",,"33.83905","-117.95889",,,,,
1314,"RED HILL-BRISTOL",,"33.66685","-117.88165",,,,,
1315,"RED HILL-CLINTON",,"33.66880","-117.87969",,,,,
1316,"RED HILL-KALMUS",,"33.67271","-117.87839",,,,,
1317,"RED HILL-FISCHER",,"33.67491","-117.87839",,,,,
1318,"RED HILL-BAKER",,"33.67811","-117.87559",,,,,
1319,"RED HILL-PAULARINO",,"33.67956","-117.87414",,,,,
132,"BROOKHURST-LA PALMA",,"33.84795","-117.95903",,,,,
1320,"RED HILL-MCCORMICK",,"33.68162","-117.87209",,,,,
1321,"RED HILL-AIRPORT LOOP",,"33.68483","-117.86892",,,,,
1322,"RED HILL-PULLMAN",,"33.68429","-117.86979",,,,,
1323,"RED HILL-MCCORMICK",,"33.68112","-117.87293",,,,,
1324,"RED HILL-PAULARINO",,"33.67962","-117.87449",,,,,
1325,"RED HILL-BAKER",,"33.67762","-117.87647",,,,,
1326,"RED HILL-FISCHER",,"33.67508","-117.87863",,,,,
1327,"RED HILL-KALMUS",,"33.67156","-117.87864",,,,,
1328,"RED HILL-CLINTON",,"33.66875","-117.88012",,,,,
1330,"SUNFLOWER-HARBOR",,"33.69555","-117.91883",,,,,
1332,"SUNFLOWER-SUSAN",,"33.69556","-117.91395",,,,,
1333,"SUNFLOWER-FAIRVIEW",,"33.69561","-117.90953",,,,,
1334,"SUNFLOWER-FAIRVIEW",,"33.69566","-117.90695",,,,,
1335,"SUNFLOWER-WIMBLEDON",,"33.69617","-117.90369",,,,,
1336,"SUNFLOWER-SMALLEY",,"33.69623","-117.90038",,,,,
1337,"SUNFLOWER-FUCHSIA",,"33.69624","-117.89799",,,,,
1338,"SUNFLOWER-BEAR",,"33.69405","-117.89280",,,,,
1339,"SUNFLOWER-PLAZA",,"33.69414","-117.88962",,,,,
1340,"SUNFLOWER-PARK CENTER",,"33.69401","-117.88384",,,,,
1341,"SUNFLOWER-AVE OF THE ARTS",,"33.69403","-117.88060",,,,,
1342,"SUNFLOWER-SAKIOKA",,"33.69396","-117.87650",,,,,
1343,"SUNFLOWER-ROSS",,"33.69400","-117.87333",,,,,
1344,"SUNFLOWER-TIMBER",,"33.69400","-117.87045",,,,,
1345,"SUNFLOWER-HARBOR",,"33.69571","-117.92010",,,,,
1346,"SUNFLOWER-HARBOR GATEWAY",,"33.69569","-117.92254",,,,,
1348,"VICTORIA-CANYON",,"33.65221","-117.94440",,,,,
1349,"VICTORIA-AMERICAN",,"33.65233","-117.94067",,,,,
1350,"VICTORIA-NATIONAL",,"33.65267","-117.93674",,,,,
1351,"VICTORIA-PLACENTIA",,"33.65236","-117.93067",,,,,
1352,"VICTORIA-POMONA",,"33.65239","-117.92710",,,,,
1353,"VICTORIA-MAPLE",,"33.65242","-117.92310",,,,,
1354,"VICTORIA-HARBOR",,"33.65241","-117.91851",,,,,
1355,"VICTORIA-THURIN",,"33.65249","-117.91345",,,,,
1356,"VICTORIA-NEWPORT",,"33.65252","-117.91082",,,,,
1358,"VICTORIA-DOCTORS",,"33.65268","-117.91325",,,,,
1359,"VICTORIA-COLLEGE",,"33.65265","-117.91665",,,,,
136,"BROOKHURST-LA PALMA",,"33.84809","-117.95937",,,,,
1360,"VICTORIA-HARBOR",,"33.65268","-117.91967",,,,,
1361,"VICTORIA-MAPLE",,"33.65264","-117.92212",,,,,
1362,"VICTORIA-POMONA",,"33.65260","-117.92811",,,,,
1363,"VICTORIA-PLACENTIA",,"33.65276","-117.93278",,,,,
1364,"VICTORIA-NATIONAL",,"33.65279","-117.93710",,,,,
1365,"VICTORIA-AMERICAN",,"33.65260","-117.94081",,,,,
1366,"VICTORIA-PACIFIC",,"33.65179","-117.94740",,,,,
1367,"WILSON-PLACENTIA",,"33.65597","-117.93160",,,,,
1368,"WILSON-POMONA",,"33.65602","-117.92857",,,,,
1369,"WILSON-ANAHEIM",,"33.65607","-117.92339",,,,,
137,"BROOKHURST-CRESCENT",,"33.83921","-117.95926",,,,,
1370,"WILSON-HARBOR",,"33.65605","-117.92074",,,,,
1371,"WILSON-HARBOR",,"33.65608","-117.91792",,,,,
1373,"WILSON-COLGATE",,"33.65619","-117.91127",,,,,
1374,"WILSON-AVALON",,"33.65638","-117.91102",,,,,
1376,"WILSON-COLLEGE",,"33.65634","-117.91678",,,,,
1377,"WILSON-HARBOR",,"33.65630","-117.91989",,,,,
1378,"WILSON-MAPLE",,"33.65627","-117.92280",,,,,
1379,"WILSON-MEYER",,"33.65625","-117.92478",,,,,
138,"BROOKHURST-WOODLEY",,"33.83561","-117.95921",,,,,
1380,"WILSON-POMONA",,"33.65622","-117.92818",,,,,
1381,"ANTON-SAKIOKA",,"33.68998","-117.87728",,,,,
1382,"INTERIOR-BEAR",,"33.69283","-117.89104",,,,,
1385,"BALL-BLOOMFIELD",,"33.81746","-118.06267",,,,,
1386,"BALL-DELANO",,"33.81744","-118.05774",,,,,
1387,"BALL-DENNI",,"33.81675","-118.05405",,,,,
1388,"BALL-LARWIN",,"33.81674","-118.04809",,,,,
1389,"BALL-MOODY",,"33.81677","-118.04503",,,,,
139,"BROOKHURST-LINCOLN",,"33.83155","-117.95917",,,,,
1390,"BALL-SAINT CHARLES",,"33.81681","-118.04114",,,,,
1391,"BALL-WALKER",,"33.81687","-118.03649",,,,,
1392,"BALL-MYRA",,"33.81696","-118.03157",,,,,
1393,"BALL-HOLDER",,"33.81726","-118.02013",,,,,
1394,"BALL-JUANITA",,"33.81722","-118.02452",,,,,
1395,"BALL-VALLEY VIEW",,"33.81718","-118.02914",,,,,
1396,"BALL-CABRILLO",,"33.81714","-118.03275",,,,,
1397,"BALL-WALKER",,"33.81710","-118.03720",,,,,
1398,"BALL-GRINDLAY",,"33.81706","-118.04147",,,,,
1399,"BALL-MOODY",,"33.81703","-118.04624",,,,,
14,"ANAHEIM-BROADWAY",,"33.83309","-117.91290",,,,,
140,"BROOKHURST-ORANGE",,"33.82463","-117.95914",,,,,
1400,"BALL-LARWIN",,"33.81698","-118.04886",,,,,
1401,"BALL-SORRENTO",,"33.81696","-118.05245",,,,,
1402,"BALL-DENNI",,"33.81710","-118.05502",,,,,
1403,"BALL-VIA LARGO",,"33.81768","-118.05910",,,,,
141,"BROOKHURST-STONEYBROOK",,"33.82226","-117.95915",,,,,
1412,"KATELLA-WARLAND",,"33.80280","-118.03388",,,,,
1413,"KATELLA-VALLEY VIEW",,"33.80272","-118.02771",,,,,
1414,"KATELLA-HOPE",,"33.80276","-118.02362",,,,,
1415,"KATELLA-HOLDER",,"33.80274","-118.01933",,,,,
1416,"KATELLA-MERIDIAN",,"33.80272","-118.01400",,,,,
1417,"KATELLA-KNOTT",,"33.80302","-118.01167",,,,,
1418,"KATELLA-MERIDIAN",,"33.80301","-118.01466",,,,,
1419,"KATELLA-HOLDER",,"33.80305","-118.02032",,,,,
142,"BROOKHURST-COLCHESTER",,"33.82052","-117.95913",,,,,
1420,"KATELLA-HOPE",,"33.80307","-118.02459",,,,,
1421,"KATELLA-VALLEY VIEW",,"33.80312","-118.02899",,,,,
1422,"KATELLA-DOUGLAS",,"33.80309","-118.03399",,,,,
1423,"KATELLA-WALKER",,"33.80311","-118.03776",,,,,
1424,"KATELLA-WINNERS CIRCLE",,"33.80313","-118.04044",,,,,
1425,"KATELLA-SIBONEY",,"33.80313","-118.04328",,,,,
1426,"KATELLA-MIDWAY",,"33.80315","-118.04975",,,,,
1427,"KNOTT-CERRITOS",,"33.80957","-118.01087",,,,,
1428,"KNOTT-JONATHON",,"33.80640","-118.01084",,,,,
1429,"KNOTT-KATELLA",,"33.80222","-118.01121",,,,,
143,"BROOKHURST-BALL",,"33.81734","-117.95914",,,,,
1430,"KNOTT-LONGFORD",,"33.79959","-118.01126",,,,,
1431,"KNOTT-ORANGEWOOD",,"33.79525","-118.01125",,,,,
1432,"KNOTT-LEILANI",,"33.79339","-118.01125",,,,,
1433,"LINCOLN-BLOOMFIELD",,"33.83157","-118.06077",,,,,
1434,"LINCOLN-LINCOLN PLAZA",,"33.83154","-118.05741",,,,,
1435,"LINCOLN-DENNI",,"33.83151","-118.05493",,,,,
1436,"LINCOLN-SUMNER",,"33.83163","-118.05064",,,,,
1437,"LINCOLN-MOODY",,"33.83159","-118.04507",,,,,
1438,"LINCOLN-GRINDLAY",,"33.83160","-118.04208",,,,,
1439,"LINCOLN-WALKER",,"33.83160","-118.03684",,,,,
144,"BROOKHURST-CERRITOS",,"33.81019","-117.95905",,,,,
1440,"LINCOLN-HOME DEPOT",,"33.83168","-118.03127",,,,,
1441,"LINCOLN-LOS ALTOS",,"33.83184","-118.03248",,,,,
1442,"LINCOLN-WALKER",,"33.83179","-118.03771",,,,,
1443,"LINCOLN-GRINDLAY",,"33.83184","-118.04122",,,,,
1444,"LINCOLN-MOODY",,"33.83180","-118.04629",,,,,
1445,"LINCOLN-SUMNER",,"33.83177","-118.05016",,,,,
1446,"LINCOLN-DENNI",,"33.83179","-118.05532",,,,,
1448,"LINCOLN-BLOOMFIELD",,"33.83169","-118.06121",,,,,
1453,"VALLEY VIEW-NOUMEA",,"33.79312","-118.02841",,,,,
1454,"VALLEY VIEW-ORANGEWOOD",,"33.79603","-118.02838",,,,,
1455,"VALLEY VIEW-PHYLISS",,"33.80009","-118.02816",,,,,
1456,"VALLEY VIEW-KATELLA",,"33.80341","-118.02815",,,,,
1457,"VALLEY VIEW-CHIP",,"33.80633","-118.02818",,,,,
1458,"VALLEY VIEW-BALL",,"33.81751","-118.02808",,,,,
1459,"VALLEY VIEW-FRED",,"33.82011","-118.02811",,,,,
146,"BROOKHURST-CRESTWOOD",,"33.80599","-117.95909",,,,,
1460,"VALLEY VIEW-ORANGE",,"33.82475","-118.02818",,,,,
1461,"VALLEY VIEW-LAKESHORE",,"33.82885","-118.02816",,,,,
1462,"VALLEY VIEW-LAKESHORE",,"33.82813","-118.02854",,,,,
1463,"VALLEY VIEW-ORANGE",,"33.82374","-118.02848",,,,,
1464,"VALLEY VIEW-FRED",,"33.81988","-118.02846",,,,,
1465,"VALLEY VIEW-BALL",,"33.81658","-118.02842",,,,,
1466,"VALLEY VIEW-BELLE",,"33.81460","-118.02840",,,,,
1467,"VALLEY VIEW-CATHY",,"33.81214","-118.02849",,,,,
1468,"VALLEY VIEW-CERRITOS",,"33.81017","-118.02834",,,,,
1469,"VALLEY VIEW-KATELLA",,"33.80248","-118.02858",,,,,
1470,"VALLEY VIEW-ORANGEWOOD",,"33.79598","-118.02868",,,,,
1471,"VALLEY VIEW-NOUMEA",,"33.79338","-118.02870",,,,,
1472,"DIAMOND BAR-PARK-N-RIDE ENTRANCE",,"34.02455","-117.81180",,,,,
1473,"PATHFINDER-BREA CANYON",,"33.98421","-117.84160",,,,,
1474,"PATHFINDER-FERN HOLLOW",,"33.98440","-117.84144",,,,,
1475,"BREA CANYON-DIAMOND BAR",,"33.96847","-117.84681",,,,,
148,"CERRITOS-ANAHEIM",,"33.81048","-117.90547",,,,,
1482,"BREA CANYON-DIAMOND BAR",,"33.96723","-117.84799",,,,,
1485,"CAMINO CAPISTRANO-VIA VERDE",,"33.46212","-117.67519",,,,,
1486,"CAMINO CAPISTRANO-VIA CALIFORNIA",,"33.46045","-117.67332",,,,,
1487,"CAMINO CAPISTRANO-VIA CATALINA",,"33.45929","-117.66993",,,,,
1488,"CAMINO CAPISTRANO-PALISADE",,"33.45876","-117.66854",,,,,
1489,"CAMINO CAPISTRANO-DOHENY",,"33.45594","-117.66559",,,,,
1490,"CAMINO CAPISTRANO-CALLE HERMOSA",,"33.45390","-117.66258",,,,,
1491,"CAMINO CAPISTRANO-CALLE FORTUNA",,"33.45416","-117.66317",,,,,
1492,"CAMINO CAPISTRANO-DOHENY",,"33.45619","-117.66544",,,,,
1493,"CAMINO CAPISTRANO-PALISADE",,"33.45848","-117.66812",,,,,
1494,"CAMINO CAPISTRANO-VIA CATALINA",,"33.45949","-117.67019",,,,,
1495,"CAMINO CAPISTRANO-VIA CALIFORNIA",,"33.46077","-117.67341",,,,,
1496,"CAMINO CAPISTRANO-VIA VERDE",,"33.46212","-117.67492",,,,,
1498,"CAMINO DE ESTRELLA-AVD LAS PALMAS",,"33.45781","-117.65717",,,,,
1499,"CAMINO DE ESTRELLA-CALLE VERANO",,"33.45348","-117.66084",,,,,
15,"ANAHEIM-CENTER ST PROMENADE",,"33.83499","-117.91349",,,,,
150,"CERRITOS-LEWIS",,"33.81077","-117.89853",,,,,
1502,"PACIFIC COAST-DEL OBISPO",,"33.46539","-117.68823",,,,,
1503,"PACIFIC COAST-ALCAZAR",,"33.46700","-117.69442",,,,,
1504,"PACIFIC COAST-COLEGIO",,"33.46756","-117.69706",,,,,
1505,"PACIFIC COAST-VIOLET LANTERN",,"33.46700","-117.69985",,,,,
1506,"PACIFIC COAST-AMBER LANTERN",,"33.46645","-117.70258",,,,,
1507,"PACIFIC COAST-RUBY LANTERN",,"33.46592","-117.70526",,,,,
1508,"PACIFIC COAST-SELVA",,"33.47045","-117.71286",,,,,
1509,"PACIFIC COAST-NIGUEL",,"33.47632","-117.71676",,,,,
151,"CERRITOS-ANAHEIM",,"33.81074","-117.90434",,,,,
1510,"PACIFIC COAST-MONARCH BAY PLAZA",,"33.48547","-117.72538",,,,,
1511,"PACIFIC COAST-CROWN VALLEY",,"33.48735","-117.72754",,,,,
1512,"PACIFIC COAST-VIA MENTONE",,"33.49034","-117.73110",,,,,
1513,"PACIFIC COAST-MONARCH BAY",,"33.48651","-117.72691",,,,,
1514,"PACIFIC COAST-RITZ-CARLTON",,"33.47847","-117.71864",,,,,
1515,"PACIFIC COAST-RITZ-CARLTON",,"33.47548","-117.71661",,,,,
1516,"PACIFIC COAST-SELVA",,"33.47001","-117.71303",,,,,
1517,"PACIFIC COAST-BINNACLE LANTERN",,"33.46593","-117.69166",,,,,
1518,"PACIFIC COAST-DANA POINT HARBOR",,"33.46497","-117.68734",,,,,
1520,"CROWN VALLEY-SEVEN SEAS",,"33.48711","-117.72533",,,,,
1521,"CROWN VALLEY-SEA ISLAND",,"33.48903","-117.72140",,,,,
1522,"CROWN VALLEY-ENT 32400 THE BLUFFS",,"33.49257","-117.71979",,,,,
1523,"CROWN VALLEY-PACIFIC ISLAND",,"33.49424","-117.72024",,,,,
1524,"CROWN VALLEY-SEA ISLAND",,"33.48854","-117.72207",,,,,
1525,"CROWN VALLEY-SEVEN SEAS",,"33.48750","-117.72552",,,,,
1528,"DANA POINT HARBOR-PACIFIC COAST HIGHWAY",,"33.46485","-117.68797",,,,,
1529,"DEL OBISPO-PACIFIC COAST",,"33.46562","-117.68668",,,,,
153,"CHAPMAN-SOMERSET",,"33.78895","-117.91080",,,,,
1530,"DEL OBISPO-VILLAGE",,"33.46819","-117.68452",,,,,
1531,"DEL OBISPO-QUAIL RUN",,"33.47079","-117.68378",,,,,
1532,"DEL OBISPO-LIGHTHOUSE",,"33.47329","-117.68422",,,,,
1533,"DEL OBISPO-STONEHILL",,"33.47513","-117.68486",,,,,
1534,"DEL OBISPO-GOLDEN SPRING",,"33.47753","-117.68532",,,,,
1535,"DEL OBISPO-BLUE SAIL",,"33.47946","-117.68525",,,,,
1536,"DEL OBISPO-WESTBORNE",,"33.48497","-117.68414",,,,,
1537,"DEL OBISPO-BLUE FIN",,"33.48176","-117.68524",,,,,
1538,"DEL OBISPO-GOLDEN SPRING",,"33.47696","-117.68543",,,,,
1539,"DEL OBISPO-STONEHILL",,"33.47541","-117.68503",,,,,
1540,"DEL OBISPO-LIGHTHOUSE",,"33.47299","-117.68449",,,,,
1541,"DEL OBISPO-VILLAGE",,"33.46738","-117.68532",,,,,
1542,"DEL PRADO-RUBY LANTERN",,"33.46542","-117.70487",,,,,
1543,"DEL PRADO-AMBER LANTERN",,"33.46540","-117.70201",,,,,
1544,"DEL PRADO-VIOLET LANTERN",,"33.46540","-117.70003",,,,,
1545,"DEL PRADO-GOLDEN LANTERN",,"33.46564","-117.69707",,,,,
1546,"DEL PRADO-COPPER LANTERN",,"33.46642","-117.69429",,,,,
1547,"DOHENY PARK-DOMINGO",,"33.46575","-117.67790",,,,,
1548,"DOHENY PARK-CAMINO CAPISTRANO",,"33.46986","-117.67554",,,,,
1549,"DOHENY PARK-DOMINGO",,"33.46547","-117.67835",,,,,
155,"CORONADO-JEFFERSON",,"33.85909","-117.83665",,,,,
1550,"DOMINGO-DOHENY PARK",,"33.46516","-117.67738",,,,,
1551,"GOLDEN LANTERN-DANA POINT HARBOR",,"33.46286","-117.69359",,,,,
1553,"GOLDEN LANTERN-LA CRESTA",,"33.46869","-117.69780",,,,,
1554,"GOLDEN LANTERN-LA PAZ",,"33.47115","-117.69773",,,,,
1555,"GOLDEN LANTERN-SELVA",,"33.47321","-117.69769",,,,,
1556,"GOLDEN LANTERN-MERIDIAN",,"33.47540","-117.69744",,,,,
1557,"GOLDEN LANTERN-ACAPULCO",,"33.47968","-117.69755",,,,,
1558,"GOLDEN LANTERN-OCEAN SPRAY",,"33.48120","-117.69760",,,,,
1559,"GOLDEN LANTERN-DANA WOODS",,"33.48593","-117.69789",,,,,
156,"CORONADO-VAN BUREN",,"33.85915","-117.83149",,,,,
1560,"GOLDEN LANTERN-SEABROOK",,"33.48807","-117.69791",,,,,
1561,"GOLDEN LANTERN-CAMINO DEL AVION",,"33.49076","-117.69774",,,,,
1562,"GOLDEN LANTERN-SEABROOK",,"33.48767","-117.69820",,,,,
1563,"GOLDEN LANTERN-DANA WOODS",,"33.48488","-117.69820",,,,,
1564,"GOLDEN LANTERN-PRISCILLA",,"33.48054","-117.69791",,,,,
1565,"GOLDEN LANTERN-ACAPULCO",,"33.47878","-117.69789",,,,,
1566,"GOLDEN LANTERN-STONEHILL",,"33.47589","-117.69789",,,,,
1567,"GOLDEN LANTERN-SELVA",,"33.47334","-117.69806",,,,,
1568,"GOLDEN LANTERN-LA CRESTA",,"33.46880","-117.69811",,,,,
1571,"NIGUEL-STONEHILL",,"33.47972","-117.71362",,,,,
1572,"NIGUEL-TENNIS VILLAS",,"33.48350","-117.71417",,,,,
1573,"NIGUEL-MONARCH BEACH",,"33.48750","-117.71197",,,,,
1574,"NIGUEL-CAMINO DEL AVION",,"33.48909","-117.71173",,,,,
1575,"NIGUEL-MONARCH BEACH",,"33.48746","-117.71236",,,,,
1577,"SELVA-GARIBALDI",,"33.47235","-117.70849",,,,,
1578,"SELVA-CHULA VISTA",,"33.47268","-117.70678",,,,,
1579,"SELVA-GRANADA",,"33.47269","-117.70412",,,,,
158,"DALE-LINCOLN",,"33.83270","-117.98467",,,,,
1580,"SELVA-ROBLES",,"33.47269","-117.70201",,,,,
1582,"SELVA-GOLDEN LANTERN",,"33.47268","-117.69833",,,,,
1583,"SELVA-DISCOVERY",,"33.47293","-117.70177",,,,,
1584,"SELVA-GRANADA",,"33.47293","-117.70425",,,,,
1585,"SELVA-CHULA VISTA",,"33.47288","-117.70707",,,,,
1586,"SELVA-GARIBALDI",,"33.47241","-117.70880",,,,,
1587,"SELVA-PACIFIC COAST",,"33.47101","-117.71257",,,,,
1588,"STONEHILL-NIGUEL",,"33.47916","-117.71332",,,,,
1589,"STONEHILL-BLUE LANTERN",,"33.47631","-117.70155",,,,,
159,"DALE-CRESCENT",,"33.83937","-117.98530",,,,,
1590,"STONEHILL-GOLDEN LANTERN",,"33.47619","-117.69683",,,,,
1591,"STONEHILL-OCEAN HILL",,"33.47622","-117.69060",,,,,
1592,"STONEHILL-DEL OBISPO",,"33.47551","-117.68559",,,,,
1593,"STONEHILL-DEL OBISPO",,"33.47572","-117.68547",,,,,
1594,"STONEHILL-OCEAN HILL",,"33.47650","-117.69075",,,,,
1595,"STONEHILL-GOLDEN LANTERN",,"33.47645","-117.69731",,,,,
1596,"STONEHILL-INTERA",,"33.47647","-117.70490",,,,,
1597,"STONEHILL-MONARCH BEACH",,"33.47838","-117.70954",,,,,
1598,"VICTORIA-SEPULVEDA",,"33.46503","-117.67511",,,,,
1599,"VICTORIA-SANTA ROSA",,"33.46474","-117.67416",,,,,
16,"ANAHEIM-LINCOLN",,"33.83729","-117.91433",,,,,
160,"DALE-TYLER",,"33.83396","-117.98489",,,,,
1600,"ASSOCIATED-YORBA LINDA",,"33.88930","-117.88551",,,,,
1602,"ASSOCIATED-BASTANCHURY",,"33.89393","-117.88546",,,,,
1603,"ASSOCIATED-ENT 2600 PARKSIDE",,"33.89807","-117.88342",,,,,
1604,"ASSOCIATED-PARK VISTA",,"33.90108","-117.88300",,,,,
1605,"ASSOCIATED-ROLLING HILLS",,"33.90387","-117.88314",,,,,
1606,"ASSOCIATED-GINGERWOOD",,"33.90799","-117.88080",,,,,
1607,"ASSOCIATED-IMPERIAL",,"33.91029","-117.88028",,,,,
1608,"ASSOCIATED-GINGERWOOD",,"33.90771","-117.88138",,,,,
1609,"ASSOCIATED-PARK VISTA",,"33.90284","-117.88333",,,,,
1610,"ASSOCIATED-CRAIG",,"33.90033","-117.88328",,,,,
1611,"ASSOCIATED-ENT 2600 PARKSIDE",,"33.89741","-117.88410",,,,,
1612,"ASSOCIATED-BASTANCHURY",,"33.89288","-117.88580",,,,,
1615,"BASTANCHURY-FAIRWAY ISLE",,"33.89917","-117.92082",,,,,
1616,"BASTANCHURY-MORNINGSIDE",,"33.89929","-117.91330",,,,,
162,"EAST-BELL",,"33.82010","-117.89656",,,,,
1622,"BASTANCHURY-PUENTE",,"33.89958","-117.91424",,,,,
1623,"BASTANCHURY-FAIRWAY ISLE",,"33.89931","-117.92159",,,,,
1624,"BRADFORD-YORBA LINDA",,"33.88786","-117.86599",,,,,
1625,"BRADFORD-TOPAZ",,"33.88476","-117.86694",,,,,
1626,"BREA-LEMON",,"33.88634","-117.92127",,,,,
1627,"BREA-LONGVIEW",,"33.88888","-117.91834",,,,,
1628,"BREA-PANORAMA",,"33.89278","-117.91633",,,,,
1629,"BREA-BASTANCHURY",,"33.89985","-117.90897",,,,,
163,"EAST-VERMONT",,"33.82522","-117.89828",,,,,
1630,"BREA-ROLLING HILLS",,"33.90347","-117.90725",,,,,
1631,"BREA-EVERGREEN",,"33.90665","-117.90554",,,,,
1632,"BREA-ROLLING HILLS",,"33.90335","-117.90763",,,,,
1634,"BREA-BASTANCHURY",,"33.89899","-117.90967",,,,,
1635,"BREA-PANORAMA",,"33.89230","-117.91718",,,,,
1636,"BREA-LONGVIEW",,"33.88910","-117.91871",,,,,
1637,"BREA-MARION",,"33.88661","-117.92126",,,,,
1638,"BROOKHURST-ROBERTA",,"33.85645","-117.95911",,,,,
1639,"BROOKHURST-ORANGETHORPE",,"33.85964","-117.95923",,,,,
164,"EAST-SOUTH",,"33.82902","-117.89952",,,,,
1640,"BROOKHURST-SOUTHGATE",,"33.86107","-117.95924",,,,,
1641,"BROOKHURST-OAK",,"33.86450","-117.95928",,,,,
1642,"BROOKHURST-VALENCIA",,"33.86676","-117.95932",,,,,
1643,"BROOKHURST-ENT 140 HUNT-WESSON",,"33.86844","-117.95934",,,,,
1644,"BROOKHURST-COMMONWEALTH",,"33.86950","-117.95955",,,,,
1645,"BROOKHURST-VALENCIA",,"33.86591","-117.95953",,,,,
1646,"BROOKHURST-OAK",,"33.86390","-117.95951",,,,,
1647,"BROOKHURST-SOUTHGATE",,"33.86096","-117.95946",,,,,
1648,"BROOKHURST-ORANGETHORPE",,"33.85876","-117.95944",,,,,
1649,"BROOKHURST-PAGE",,"33.85548","-117.95941",,,,,
165,"EAST-SANTA ANA",,"33.83408","-117.90123",,,,,
1650,"MALVERN-GILBERT",,"33.87771","-117.96692",,,,,
1651,"MALVERN-BRIDGEPORT",,"33.87656","-117.95808",,,,,
1652,"MALVERN-ADLENA",,"33.87619","-117.95540",,,,,
1653,"MALVERN-BASQUE",,"33.87560","-117.95090",,,,,
1655,"CHAPMAN-WOODS",,"33.87393","-117.93693",,,,,
1656,"CHAPMAN-RICHMAN",,"33.87370","-117.93327",,,,,
1657,"CHAPMAN-FORD",,"33.87372","-117.93056",,,,,
1659,"CHAPMAN-MALDEN",,"33.87375","-117.92684",,,,,
166,"EAST-LINCOLN",,"33.83882","-117.90281",,,,,
1660,"CHAPMAN-HARBOR",,"33.87382","-117.92351",,,,,
1662,"CHAPMAN-LEMON",,"33.87387","-117.91931",,,,,
1663,"CHAPMAN-LEMON",,"33.87389","-117.91743",,,,,
1664,"CHAPMAN-BERKELEY",,"33.87391","-117.91373",,,,,
1665,"CHAPMAN-YALE",,"33.87393","-117.91164",,,,,
1666,"CHAPMAN-CORNELL",,"33.87394","-117.90949",,,,,
1667,"CHAPMAN-RAYMOND",,"33.87397","-117.90653",,,,,
1668,"CHAPMAN-VICTORIA",,"33.87400","-117.90385",,,,,
1669,"CHAPMAN-ANNIN",,"33.87402","-117.90110",,,,,
167,"EAST-GLENWOOD",,"33.84313","-117.90418",,,,,
1670,"CHAPMAN-ACACIA",,"33.87405","-117.89782",,,,,
1671,"CHAPMAN-MOUNTAIN VIEW",,"33.87407","-117.89583",,,,,
1672,"CHAPMAN-LADERA VISTA",,"33.87409","-117.89329",,,,,
1673,"CHAPMAN-STATE COLLEGE",,"33.87412","-117.88909",,,,,
1677,"CHAPMAN-ENT 2751 LAGURA",,"33.87436","-117.88174",,,,,
1678,"CHAPMAN-STATE COLLEGE",,"33.87429","-117.89028",,,,,
168,"EAST-BELMONT",,"33.84804","-117.90577",,,,,
1680,"CHAPMAN-MOUNTAIN VIEW",,"33.87424","-117.89640",,,,,
1681,"CHAPMAN-ACACIA",,"33.87424","-117.89905",,,,,
1682,"CHAPMAN-HART",,"33.87421","-117.90220",,,,,
1683,"CHAPMAN-VICTORIA",,"33.87418","-117.90478",,,,,
1684,"CHAPMAN-RAYMOND",,"33.87416","-117.90779",,,,,
1685,"CHAPMAN-CORNELL",,"33.87413","-117.91046",,,,,
1686,"CHAPMAN-BERKELEY",,"33.87411","-117.91459",,,,,
1687,"CHAPMAN-LEMON",,"33.87408","-117.91802",,,,,
1688,"CHAPMAN-LEMON",,"33.87410","-117.91961",,,,,
1689,"CHAPMAN-POMONA",,"33.87400","-117.92315",,,,,
169,"EAST-ROMNEYA",,"33.85109","-117.90655",,,,,
1690,"CHAPMAN-HARBOR",,"33.87400","-117.92479",,,,,
1693,"CHAPMAN-FORD",,"33.87390","-117.93128",,,,,
1695,"MALVERN-WOODS",,"33.87463","-117.93810",,,,,
1696,"MALVERN-EUCLID",,"33.87503","-117.94168",,,,,
1697,"MALVERN-BUENA VISTA",,"33.87516","-117.94332",,,,,
1698,"MALVERN-BEVERLY",,"33.87541","-117.94657",,,,,
1699,"MALVERN-CARHART",,"33.87582","-117.95123",,,,,
17,"ANAHEIM-SYCAMORE",,"33.83970","-117.91519",,,,,
170,"EAST-BALSAM",,"33.85051","-117.90683",,,,,
1700,"MALVERN-ADLENA",,"33.87631","-117.95500",,,,,
1701,"MALVERN-BASTANCHURY",,"33.87692","-117.95874",,,,,
1702,"MALVERN-TARGET WAY",,"33.87718","-117.96148",,,,,
1704,"COMMONWEALTH-MAGNOLIA",,"33.86989","-117.97582",,,,,
1705,"COMMONWEALTH-PRITCHARD",,"33.86991","-117.97380",,,,,
1707,"COMMONWEALTH-GILBERT",,"33.86993","-117.96780",,,,,
1708,"COMMONWEALTH-LLOYD",,"33.86998","-117.96291",,,,,
1709,"COMMONWEALTH-BROOKHURST",,"33.87001","-117.95891",,,,,
171,"EAST-NORTH",,"33.84641","-117.90554",,,,,
1710,"COMMONWEALTH-BASQUE",,"33.87006","-117.95026",,,,,
1711,"COMMONWEALTH-CITRUS",,"33.87013","-117.94614",,,,,
1712,"COMMONWEALTH-EUCLID",,"33.87011","-117.94120",,,,,
1713,"COMMONWEALTH-WOODS",,"33.87013","-117.93718",,,,,
1714,"COMMONWEALTH-RICHMAN",,"33.87018","-117.93277",,,,,
1715,"COMMONWEALTH-HIGHLAND",,"33.87018","-117.93018",,,,,
1716,"COMMONWEALTH-HIGHLAND",,"33.87021","-117.92848",,,,,
1717,"COMMONWEALTH-MALDEN",,"33.87021","-117.92622",,,,,
1718,"COMMONWEALTH-LEMON",,"33.87026","-117.91957",,,,,
1719,"COMMONWEALTH-LAWRENCE",,"33.87028","-117.91727",,,,,
172,"EAST-SYCAMORE",,"33.84201","-117.90410",,,,,
1720,"COMMONWEALTH-BALCOM",,"33.87029","-117.91523",,,,,
1721,"COMMONWEALTH-YALE",,"33.87036","-117.91183",,,,,
1722,"COMMONWEALTH-CORNELL",,"33.87039","-117.90957",,,,,
1723,"COMMONWEALTH-RAYMOND",,"33.87037","-117.90610",,,,,
1724,"COMMONWEALTH-ANNIN",,"33.87041","-117.90140",,,,,
1725,"COMMONWEALTH-ACACIA",,"33.87040","-117.89867",,,,,
1726,"COMMONWEALTH-MOUNTAIN VIEW",,"33.87044","-117.89586",,,,,
1728,"COMMONWEALTH-STATE COLLEGE",,"33.87044","-117.88985",,,,,
1729,"COMMONWEALTH-SAN CARLOS",,"33.87163","-117.88539",,,,,
173,"EAST-SANTA ANA",,"33.83335","-117.90123",,,,,
1730,"COMMONWEALTH-CHAPMAN",,"33.87460","-117.88410",,,,,
1731,"COMMONWEALTH-NUTWOOD",,"33.87791","-117.88413",,,,,
1732,"COMMONWEALTH-NUTWOOD",,"33.87743","-117.88442",,,,,
1734,"COMMONWEALTH-CHAPMAN",,"33.87443","-117.88432",,,,,
1735,"COMMONWEALTH-SAN CARLOS",,"33.87143","-117.88592",,,,,
1736,"COMMONWEALTH-MISSION",,"33.87069","-117.88771",,,,,
1737,"COMMONWEALTH-STATE COLLEGE",,"33.87075","-117.89001",,,,,
1738,"COMMONWEALTH-LADERA VISTA",,"33.87063","-117.89391",,,,,
174,"EAST-SOUTH",,"33.82959","-117.89998",,,,,
1740,"COMMONWEALTH-ACACIA",,"33.87060","-117.89866",,,,,
1741,"COMMONWEALTH-ANNIN",,"33.87057","-117.90210",,,,,
1743,"COMMONWEALTH-RAYMOND",,"33.87056","-117.90673",,,,,
1744,"COMMONWEALTH-YALE",,"33.87055","-117.91157",,,,,
1745,"COMMONWEALTH-PRINCETON",,"33.87053","-117.91327",,,,,
1746,"COMMONWEALTH-BALCOM",,"33.87051","-117.91576",,,,,
1748,"COMMONWEALTH-LEMON",,"33.87048","-117.91947",,,,,
1749,"COMMONWEALTH-MALDEN",,"33.87043","-117.92633",,,,,
175,"EAST-VERMONT",,"33.82531","-117.89860",,,,,
1750,"COMMONWEALTH-HIGHLAND",,"33.87043","-117.92903",,,,,
1751,"COMMONWEALTH-SHORT",,"33.87040","-117.93121",,,,,
1752,"COMMONWEALTH-RICHMAN",,"33.87036","-117.93334",,,,,
1753,"COMMONWEALTH-DRAKE",,"33.87038","-117.93563",,,,,
1754,"COMMONWEALTH-WOODS",,"33.87036","-117.93783",,,,,
1755,"COMMONWEALTH-EUCLID",,"33.87029","-117.94246",,,,,
1756,"COMMONWEALTH-CITRUS",,"33.87025","-117.94654",,,,,
1757,"COMMONWEALTH-BASQUE",,"33.87027","-117.95049",,,,,
1758,"COMMONWEALTH-ALBERTA",,"33.87025","-117.95316",,,,,
1759,"COMMONWEALTH-BROOKHURST",,"33.87021","-117.95981",,,,,
176,"EAST-BELL",,"33.82031","-117.89694",,,,,
1760,"COMMONWEALTH-LLOYD",,"33.87016","-117.96330",,,,,
1761,"COMMONWEALTH-GILBERT",,"33.87012","-117.96884",,,,,
1762,"COMMONWEALTH-JENSEN",,"33.87010","-117.97150",,,,,
1763,"COMMONWEALTH-PRITCHARD",,"33.87009","-117.97388",,,,,
1765,"COMMONWEALTH-EDWARD",,"33.87005","-117.97985",,,,,
1766,"EUCLID-BAKER",,"33.85666","-117.94170",,,,,
1767,"EUCLID-ORANGETHORPE",,"33.85866","-117.94173",,,,,
1768,"EUCLID-SOUTHGATE",,"33.86158","-117.94176",,,,,
177,"EUCLID-ORD",,"33.79291","-117.94115",,,,,
1770,"EUCLID-VALENCIA",,"33.86604","-117.94183",,,,,
1771,"EUCLID-COMMONWEALTH",,"33.87070","-117.94187",,,,,
1772,"EUCLID-CHAPMAN",,"33.87359","-117.94193",,,,,
1774,"EUCLID-FERN",,"33.87899","-117.94198",,,,,
1775,"EUCLID-VALENCIA MESA",,"33.88687","-117.94139",,,,,
1776,"EUCLID-BASTANCHURY",,"33.88975","-117.94275",,,,,
178,"EUCLID-ORANGEWOOD",,"33.79617","-117.94119",,,,,
1780,"EUCLID-LAGUNA",,"33.90046","-117.94073",,,,,
1781,"EUCLID-LAKEVIEW",,"33.90443","-117.94126",,,,,
1782,"EUCLID-LA SENDA",,"33.90560","-117.94398",,,,,
1783,"EUCLID-COUNTRY HILLS",,"33.90823","-117.94791",,,,,
1784,"EUCLID-LAGUNA",,"33.90012","-117.94133",,,,,
1785,"EUCLID-LAGUNA TERRACE",,"33.89539","-117.94414",,,,,
1786,"EUCLID-ROSECRANS",,"33.89315","-117.94454",,,,,
1787,"EUCLID-PASEO DORADO",,"33.89145","-117.94367",,,,,
1788,"EUCLID-BASTANCHURY",,"33.88926","-117.94288",,,,,
179,"EUCLID-KATELLA",,"33.80186","-117.94129",,,,,
1790,"EUCLID-ARROYO",,"33.87898","-117.94220",,,,,
1791,"EUCLID-CHAPMAN",,"33.87335","-117.94214",,,,,
1792,"EUCLID-COMMONWEALTH",,"33.87069","-117.94213",,,,,
1793,"EUCLID-VALENCIA",,"33.86586","-117.94205",,,,,
1795,"EUCLID-HILL",,"33.86215","-117.94200",,,,,
1796,"EUCLID-ORANGETHORPE",,"33.85899","-117.94194",,,,,
1797,"EUCLID-BAKER",,"33.85669","-117.94193",,,,,
1798,"GILBERT-COMMONWEALTH",,"33.87041","-117.96813",,,,,
1799,"GILBERT-RAYMER",,"33.87344","-117.96823",,,,,
18,"ANAHEIM-WILHELMINA",,"33.84192","-117.91593",,,,,
180,"EUCLID-SALLIE",,"33.80515","-117.94131",,,,,
1800,"GILBERT-MOORE",,"33.87563","-117.96820",,,,,
1801,"GILBERT-MALVERN",,"33.87724","-117.96773",,,,,
1802,"GILBERT-MOORE",,"33.87509","-117.96845",,,,,
1803,"GILBERT-RAYMER",,"33.87338","-117.96845",,,,,
1804,"HARBOR-ORANGEFAIR",,"33.85659","-117.92414",,,,,
1805,"HARBOR-ORANGETHORPE",,"33.86001","-117.92411",,,,,
1806,"HARBOR-COSTCO",,"33.86231","-117.92416",,,,,
1807,"HARBOR-ASH",,"33.86562","-117.92420",,,,,
1808,"HARBOR-COMMONWEALTH",,"33.87071","-117.92424",,,,,
1809,"HARBOR-CHAPMAN",,"33.87367","-117.92422",,,,,
181,"EUCLID-CRIS",,"33.80799","-117.94132",,,,,
1810,"HARBOR-ELLIS",,"33.87513","-117.92417",,,,,
1811,"HARBOR-UNION",,"33.87763","-117.92421",,,,,
1812,"HARBOR-BERKELEY",,"33.87955","-117.92427",,,,,
1813,"HARBOR-BREA",,"33.88454","-117.92556",,,,,
1814,"HARBOR-ENT BREA DAM",,"33.88907","-117.92728",,,,,
1815,"HARBOR-VALENCIA MESA",,"33.89390","-117.92847",,,,,
1816,"HARBOR-BASTANCHURY",,"33.89591","-117.92885",,,,,
1817,"HARBOR-ENT 2700 FULLERTON",,"33.90074","-117.92913",,,,,
1818,"HARBOR-ENT 2800 FAIRWAY",,"33.90227","-117.92916",,,,,
1819,"HARBOR-LA ENTRADA",,"33.90733","-117.93019",,,,,
182,"EUCLID-CERRITOS",,"33.81082","-117.94130",,,,,
1820,"HARBOR-HERMOSA",,"33.90942","-117.93072",,,,,
1821,"HARBOR-IMPERIAL",,"33.91835","-117.93293",,,,,
1822,"HARBOR-BECKMAN",,"33.92080","-117.93299",,,,,
1823,"HARBOR-LAS RIENDAS",,"33.91430","-117.93286",,,,,
1824,"HARBOR-LAS PALMAS",,"33.91118","-117.93124",,,,,
1825,"HARBOR-HERMOSA",,"33.90899","-117.93090",,,,,
1826,"HARBOR-LA ENTRADA",,"33.90638","-117.93027",,,,,
1827,"HARBOR-BASTANCHURY",,"33.89534","-117.92894",,,,,
1828,"HARBOR-VALENCIA MESA",,"33.89372","-117.92863",,,,,
1829,"HARBOR-VALLEY VIEW",,"33.88269","-117.92486",,,,,
183,"EUCLID-PALAIS",,"33.81401","-117.94131",,,,,
1830,"HARBOR-BERKELEY",,"33.87978","-117.92457",,,,,
1831,"HARBOR-UNION",,"33.87753","-117.92445",,,,,
1832,"HARBOR-CHAPMAN",,"33.87360","-117.92451",,,,,
1833,"HARBOR-SANTA FE",,"33.86951","-117.92438",,,,,
1835,"HARBOR-SOUTHGATE",,"33.86208","-117.92443",,,,,
1836,"HARBOR-ORANGETHORPE",,"33.85938","-117.92440",,,,,
1837,"HARBOR-ORANGEFAIR",,"33.85621","-117.92436",,,,,
1838,"IMPERIAL-HARBOR",,"33.91725","-117.93220",,,,,
1839,"IMPERIAL-PALM",,"33.91727","-117.92390",,,,,
184,"EUCLID-BALL",,"33.81862","-117.94131",,,,,
1840,"IMPERIAL-GEMINI",,"33.91723","-117.92027",,,,,
1841,"IMPERIAL-PALM",,"33.91752","-117.92488",,,,,
1842,"IMPERIAL-HARBOR",,"33.91751","-117.93282",,,,,
1843,"LEMON-VALENCIA",,"33.86602","-117.91981",,,,,
1844,"LEMON-COMMONWEALTH",,"33.87078","-117.91975",,,,,
1845,"LEMON-WILSHIRE",,"33.87258","-117.91968",,,,,
1846,"LEMON-CHAPMAN",,"33.87387","-117.91998",,,,,
1848,"LEMON-COMMONWEALTH",,"33.87055","-117.91995",,,,,
1849,"LEMON-VALENCIA",,"33.86589","-117.92001",,,,,
185,"EUCLID-CRONE",,"33.82203","-117.94132",,,,,
1850,"LEMON-FREEDOM",,"33.86201","-117.92004",,,,,
1851,"LEMON-ORANGETHORPE",,"33.85864","-117.92005",,,,,
1852,"LEMON-ORANGEFAIR",,"33.85583","-117.92003",,,,,
1853,"MAGNOLIA-PORTER",,"33.86003","-117.97618",,,,,
1854,"MAGNOLIA-OLIVE",,"33.86209","-117.97622",,,,,
1856,"MAGNOLIA-VALENCIA",,"33.86618","-117.97626",,,,,
1857,"MAGNOLIA-COMMONWEALTH",,"33.86966","-117.97648",,,,,
1858,"MAGNOLIA-ORANGETHORPE",,"33.85944","-117.97644",,,,,
1859,"NUTWOOD-STATE COLLEGE",,"33.87767","-117.88945",,,,,
186,"EUCLID-ORANGE",,"33.82591","-117.94136",,,,,
1862,"NUTWOOD-PLACENTIA",,"33.87801","-117.87834",,,,,
1864,"NUTWOOD-COMMONWEALTH",,"33.87823","-117.88446",,,,,
1866,"ORANGETHORPE-AUTO CENTER DRIVE",,"33.85897","-117.98112",,,,,
1868,"ORANGETHORPE-MAGNOLIA",,"33.85898","-117.97588",,,,,
187,"EUCLID-BROADWAY",,"33.82927","-117.94135",,,,,
1870,"ORANGETHORPE-PECKHAM",,"33.85902","-117.97103",,,,,
1871,"ORANGETHORPE-GILBERT",,"33.85905","-117.96739",,,,,
1872,"ORANGETHORPE-COURTNEY",,"33.85906","-117.96340",,,,,
1873,"ORANGETHORPE-BROOKHURST",,"33.85909","-117.95886",,,,,
1875,"ORANGETHORPE-EADINGTON",,"33.85913","-117.95299",,,,,
1876,"ORANGETHORPE-BASQUE",,"33.85916","-117.94964",,,,,
1877,"ORANGETHORPE-ORCHARD",,"33.85918","-117.94659",,,,,
1878,"ORANGETHORPE-EUCLID",,"33.85922","-117.94142",,,,,
1879,"ORANGETHORPE-WOODS",,"33.85933","-117.93668",,,,,
1880,"ORANGETHORPE-RICHMAN",,"33.85930","-117.93270",,,,,
1881,"ORANGETHORPE-HIGHLAND",,"33.85932","-117.92805",,,,,
1882,"ORANGETHORPE-HARBOR",,"33.85933","-117.92331",,,,,
1883,"ORANGETHORPE-RAYMOND",,"33.85944","-117.90645",,,,,
1884,"ORANGETHORPE-MANHATTAN",,"33.85946","-117.90276",,,,,
1885,"ORANGETHORPE-ACACIA",,"33.85950","-117.89838",,,,,
1886,"ORANGETHORPE-ENT 2150 VISTA PAINT",,"33.85953","-117.89393",,,,,
1887,"ORANGETHORPE-PLACENTIA",,"33.85999","-117.88368",,,,,
1888,"ORANGETHORPE-STATE COLLEGE",,"33.85980","-117.88957",,,,,
1889,"ORANGETHORPE-ENT 2100 COLT",,"33.85988","-117.89449",,,,,
189,"EUCLID-LINCOLN",,"33.83302","-117.94116",,,,,
1890,"ORANGETHORPE-ACACIA",,"33.85991","-117.89873",,,,,
1891,"ORANGETHORPE-MANHATTAN",,"33.85989","-117.90253",,,,,
1892,"ORANGETHORPE-LEMON",,"33.85958","-117.92054",,,,,
1893,"ORANGETHORPE-HARBOR",,"33.85963","-117.92453",,,,,
1894,"ORANGETHORPE-HIGHLAND",,"33.85959","-117.92889",,,,,
1895,"ORANGETHORPE-RICHMAN",,"33.85949","-117.93323",,,,,
1896,"ORANGETHORPE-WOODS",,"33.85945","-117.93729",,,,,
1897,"ORANGETHORPE-EUCLID",,"33.85948","-117.94258",,,,,
1898,"ORANGETHORPE-ORCHARD",,"33.85940","-117.94776",,,,,
1899,"ORANGETHORPE-BASQUE",,"33.85937","-117.95043",,,,,
19,"ANAHEIM-NORTH",,"33.84413","-117.91666",,,,,
190,"EUCLID-CRESCENT",,"33.84024","-117.94143",,,,,
1900,"ORANGETHORPE-EADINGTON",,"33.85937","-117.95339",,,,,
1902,"ORANGETHORPE-BROOKHURST",,"33.85932","-117.95987",,,,,
1903,"ORANGETHORPE-COURTNEY",,"33.85926","-117.96415",,,,,
1904,"ORANGETHORPE-GILBERT",,"33.85926","-117.96785",,,,,
1905,"ORANGETHORPE-PECKHAM",,"33.85921","-117.97089",,,,,
1906,"ORANGETHORPE-VINE",,"33.85920","-117.97435",,,,,
1907,"PLACENTIA-MADISON",,"33.88247","-117.87641",,,,,
1909,"PLACENTIA-GARNET",,"33.88707","-117.87508",,,,,
191,"EUCLID-GLENOAKS",,"33.84323","-117.94152",,,,,
1910,"PLACENTIA-YORBA LINDA",,"33.88869","-117.87482",,,,,
1913,"PLACENTIA-MADISON",,"33.88238","-117.87668",,,,,
1914,"PLACENTIA-RUBY",,"33.87992","-117.87742",,,,,
1915,"PLACENTIA-NUTWOOD",,"33.87762","-117.87807",,,,,
1917,"POMONA-CHAPMAN",,"33.87389","-117.92219",,,,,
1918,"RAYMOND-ORANGEFAIR",,"33.85622","-117.90660",,,,,
1919,"RAYMOND-ORANGETHORPE",,"33.86034","-117.90667",,,,,
1920,"RAYMOND-ELM",,"33.86370","-117.90678",,,,,
1921,"RAYMOND-VALENCIA",,"33.86647","-117.90675",,,,,
1922,"RAYMOND-COMMONWEALTH",,"33.87118","-117.90684",,,,,
1923,"RAYMOND-WHITING",,"33.87339","-117.90712",,,,,
1924,"RAYMOND-SUDENE",,"33.86943","-117.90706",,,,,
1925,"RAYMOND-TRUSLOW",,"33.86707","-117.90700",,,,,
1926,"RAYMOND-ELM",,"33.86336","-117.90699",,,,,
1927,"STATE COLLEGE-CYPRESS",,"33.86154","-117.88931",,,,,
1928,"STATE COLLEGE-ENT FULLERTON",,"33.86521","-117.88936",,,,,
1929,"STATE COLLEGE-FENDER",,"33.86776","-117.88941",,,,,
193,"EUCLID-LA PALMA",,"33.84744","-117.94155",,,,,
1930,"STATE COLLEGE-COMMONWEALTH",,"33.87106","-117.88950",,,,,
1931,"STATE COLLEGE-CHAPMAN",,"33.87486","-117.88932",,,,,
1932,"STATE COLLEGE-NUTWOOD",,"33.87803","-117.88955",,,,,
1933,"STATE COLLEGE-CAMPUS",,"33.88183","-117.88962",,,,,
1934,"STATE COLLEGE-CORPORATION",,"33.88489","-117.88967",,,,,
1935,"STATE COLLEGE-YORBA LINDA",,"33.88865","-117.89003",,,,,
1936,"STATE COLLEGE-VISTA DEL SOL",,"33.89275","-117.89141",,,,,
1939,"STATE COLLEGE-BASTANCHURY",,"33.89755","-117.89188",,,,,
194,"EUCLID-ROMNEYA",,"33.85025","-117.94158",,,,,
1940,"STATE COLLEGE-PALMETTO",,"33.89494","-117.89173",,,,,
1941,"STATE COLLEGE-MENDOCINO",,"33.89124","-117.89163",,,,,
1942,"STATE COLLEGE-YORBA LINDA",,"33.88727","-117.89015",,,,,
1943,"STATE COLLEGE-RANCH",,"33.88412","-117.88995",,,,,
1944,"STATE COLLEGE-DOROTHY",,"33.88098","-117.88987",,,,,
1945,"STATE COLLEGE-NUTWOOD",,"33.87762","-117.88973",,,,,
1946,"STATE COLLEGE-CHAPMAN",,"33.87336","-117.88976",,,,,
1947,"STATE COLLEGE-COMMONWEALTH",,"33.87012","-117.88971",,,,,
1948,"STATE COLLEGE-VALENCIA",,"33.86720","-117.88961",,,,,
1949,"STATE COLLEGE-KIMBERLY",,"33.86344","-117.88952",,,,,
195,"EUCLID-MEDICAL CENTER",,"33.85209","-117.94162",,,,,
1950,"STATE COLLEGE-ORANGETHORPE",,"33.85941","-117.88957",,,,,
1958,"FULLERTON TRANS CTR DOCK 5",,"33.86937","-117.92393",,,,,
196,"EUCLID-MEDICAL CENTER",,"33.85203","-117.94191",,,,,
1960,"FULLERTON TRANS CTR DOCK 1",,"33.86959","-117.92327",,,,,
1961,"FULLERTON TRANS CTR DOCK 2",,"33.86978","-117.92307",,,,,
1962,"FULLERTON TRANS CTR DOCK 3",,"33.86994","-117.92238",,,,,
1963,"FULLERTON TRANS CTR DOCK 4",,"33.86985","-117.92377",,,,,
1969,"FULLERTON PARK AND RIDE DOCK 5",,"33.85866","-117.97867",,,,,
197,"EUCLID-ROMNEYA",,"33.85023","-117.94191",,,,,
1970,"FULLERTON PARK AND RIDE DOCK6",,"33.85866","-117.97893",,,,,
1971,"FULLERTON PARK AND RIDE DOCK 7",,"33.85866","-117.97920",,,,,
1972,"FULLERTON PARK AND RIDE DOCK 8",,"33.85865","-117.97946",,,,,
1973,"FULLERTON PARK AND RIDE DOCK 9",,"33.85866","-117.97973",,,,,
1974,"FULLERTON PARK AND RIDE DOCK 10",,"33.85866","-117.97999",,,,,
1975,"FULLERTON PARK AND RIDE DOCK 11",,"33.85866","-117.98025",,,,,
1976,"FULLERTON PARK AND RIDE DOCK 12",,"33.85865","-117.98050",,,,,
1981,"BROOKHURST-GARFIELD",,"33.68771","-117.95394",,,,,
1983,"BROOKHURST-ENT 18650 CHATEAU",,"33.69166","-117.95404",,,,,
1984,"BROOKHURST-ELLIS",,"33.69449","-117.95405",,,,,
1985,"BROOKHURST-QUAIL",,"33.69718","-117.95410",,,,,
1987,"BROOKHURST-TALBERT",,"33.70224","-117.95417",,,,,
1988,"BROOKHURST-SLATER",,"33.70940","-117.95427",,,,,
1989,"BROOKHURST-LA ALAMEDA",,"33.71207","-117.95428",,,,,
199,"EUCLID-LA PALMA",,"33.84632","-117.94184",,,,,
1990,"BROOKHURST-WARNER",,"33.71752","-117.95431",,,,,
1991,"BROOKHURST-PETUNIA",,"33.72045","-117.95440",,,,,
1992,"BROOKHURST-HEIL",,"33.72332","-117.95442",,,,,
1993,"BROOKHURST-THISTLE",,"33.72553","-117.95444",,,,,
1994,"BROOKHURST-EDINGER",,"33.73106","-117.95450",,,,,
1995,"BROOKHURST-EDINGER",,"33.72959","-117.95484",,,,,
1996,"BROOKHURST-THISTLE",,"33.72554","-117.95481",,,,,
1997,"BROOKHURST-HEIL",,"33.72305","-117.95478",,,,,
1998,"BROOKHURST-PETUNIA",,"33.71985","-117.95472",,,,,
1999,"BROOKHURST-WARNER",,"33.71556","-117.95470",,,,,
2,"HASTER-ORANGEWOOD",,"33.79584","-117.90631",,,,,
20,"ANAHEIM-LA VERNE",,"33.84630","-117.91754",,,,,
2000,"BROOKHURST-LA ALAMEDA",,"33.71223","-117.95467",,,,,
2001,"BROOKHURST-SLATER",,"33.70843","-117.95465",,,,,
2002,"BROOKHURST-TALBERT",,"33.70125","-117.95453",,,,,
2003,"BROOKHURST-PHILLIPS",,"33.69734","-117.95445",,,,,
2004,"BROOKHURST-ELLIS",,"33.69363","-117.95437",,,,,
2005,"BROOKHURST-NIAGARA RIVER",,"33.68983","-117.95432",,,,,
2006,"EDINGER-MAGNOLIA",,"33.73020","-117.97115",,,,,
2007,"EDINGER-SWEETLEAF",,"33.73021","-117.96673",,,,,
2008,"EDINGER-BUSHARD",,"33.73024","-117.96294",,,,,
2009,"EDINGER-BASIL",,"33.73026","-117.96051",,,,,
201,"EUCLID-GLENOAKS",,"33.84277","-117.94176",,,,,
2010,"EDINGER-LAS FLORES",,"33.73043","-117.94965",,,,,
2011,"EDINGER-WARD",,"33.73055","-117.94547",,,,,
2012,"EDINGER-LOS GATOS",,"33.73065","-117.94168",,,,,
2013,"EDINGER-EUCLID",,"33.73077","-117.93682",,,,,
2014,"EDINGER-MOUNT HICKS",,"33.73080","-117.93361",,,,,
2015,"EDINGER-NEWHOPE",,"33.73082","-117.92822",,,,,
2016,"EDINGER-RICHARDSON",,"33.73011","-117.92539",,,,,
2017,"EDINGER-IRIS",,"33.72762","-117.92261",,,,,
2018,"EDINGER-HARBOR",,"33.72750","-117.92008",,,,,
202,"EUCLID-CRESCENT",,"33.84002","-117.94177",,,,,
2020,"EDINGER-MOUNT OLANCHA",,"33.72838","-117.92332",,,,,
2021,"EDINGER-RICHARDSON",,"33.73058","-117.92564",,,,,
2022,"EDINGER-EUCLID",,"33.73101","-117.93810",,,,,
2023,"EDINGER-LOS GATOS",,"33.73087","-117.94220",,,,,
2024,"EDINGER-WARD",,"33.73077","-117.94649",,,,,
2025,"EDINGER-LAS FLORES",,"33.73066","-117.95030",,,,,
2026,"EDINGER-BROOKHURST",,"33.73052","-117.95511",,,,,
2027,"EDINGER-HIRAM",,"33.73047","-117.96133",,,,,
2028,"ELLIS-BROOKHURST",,"33.69401","-117.95346",,,,,
2029,"ELLIS-LAS FLORES",,"33.69405","-117.94921",,,,,
203,"EUCLID-LINCOLN",,"33.83176","-117.94169",,,,,
2030,"ELLIS-WARD",,"33.69407","-117.94479",,,,,
2031,"ELLIS-PACIFIC",,"33.69433","-117.93890",,,,,
2033,"ELLIS-MOUNT LANGLEY",,"33.69436","-117.94250",,,,,
2034,"ELLIS-WARD",,"33.69431","-117.94606",,,,,
2035,"ELLIS-LAS FLORES",,"33.69424","-117.95007",,,,,
2036,"EUCLID-405 FRWY OFF-RAMP",,"33.69433","-117.93644",,,,,
2038,"EUCLID-TALBERT",,"33.70246","-117.93679",,,,,
2039,"EUCLID-SOUTHPARK",,"33.70464","-117.93685",,,,,
204,"EUCLID-BROADWAY",,"33.82847","-117.94167",,,,,
2040,"EUCLID-SLATER",,"33.70931","-117.93692",,,,,
2041,"EUCLID-ENT 17300 VALLEY PARK",,"33.71188","-117.93695",,,,,
2042,"EUCLID-WARNER",,"33.71472","-117.93698",,,,,
2043,"EUCLID-WARNER",,"33.71745","-117.93703",,,,,
2044,"EUCLID-CAMELLIA",,"33.71924","-117.93704",,,,,
2045,"EUCLID-LAVENDER",,"33.72250","-117.93707",,,,,
2046,"EUCLID-BLUE ALLIUM",,"33.72605","-117.93711",,,,,
2047,"EUCLID-BELLFLOWER",,"33.72871","-117.93714",,,,,
2048,"EUCLID-EDINGER",,"33.73180","-117.93714",,,,,
205,"EUCLID-ORANGE",,"33.82535","-117.94156",,,,,
2050,"EUCLID-EDINGER",,"33.73111","-117.93746",,,,,
2052,"EUCLID-BLUE ALLIUM",,"33.72587","-117.93737",,,,,
2053,"EUCLID-LAVENDER",,"33.72244","-117.93735",,,,,
2054,"EUCLID-CAMELIA",,"33.71980","-117.93731",,,,,
2055,"EUCLID-WARNER",,"33.71590","-117.93729",,,,,
2056,"EUCLID-ENT 17300 VALLEY PARK",,"33.71137","-117.93723",,,,,
2057,"EUCLID-SLATER",,"33.70877","-117.93718",,,,,
2058,"EUCLID-SOUTHPARK",,"33.70442","-117.93714",,,,,
2059,"EUCLID-TALBERT",,"33.70274","-117.93711",,,,,
206,"EUCLID-CRONE",,"33.82133","-117.94163",,,,,
2061,"EUCLID-CONDOR",,"33.69853","-117.93561",,,,,
2062,"GARFIELD-BROOKHURST",,"33.68695","-117.95507",,,,,
2063,"GARFIELD-PERSIMMON",,"33.68693","-117.95940",,,,,
2064,"GARFIELD-BUSHARD",,"33.68690","-117.96321",,,,,
2065,"GARFIELD-PAULINE",,"33.68687","-117.96612",,,,,
2066,"GARFIELD-ACACIA",,"33.68687","-117.96925",,,,,
2067,"GARFIELD-MAGNOLIA",,"33.68685","-117.97207",,,,,
2068,"GARFIELD-SANTA CATHERINE",,"33.68685","-117.97470",,,,,
2069,"GARFIELD-DAKOTA",,"33.68681","-117.97813",,,,,
207,"EUCLID-BALL",,"33.81735","-117.94159",,,,,
2070,"HARBOR-HEIL",,"33.72348","-117.91970",,,,,
2071,"HARBOR-EDINGER",,"33.72813","-117.91973",,,,,
2072,"HARBOR-LILAC",,"33.73054","-117.91976",,,,,
2073,"HARBOR-LILAC",,"33.73020","-117.92011",,,,,
2075,"HARBOR-EDINGER",,"33.72800","-117.92008",,,,,
2076,"HARBOR-HEIL",,"33.72320","-117.92003",,,,,
2077,"MAGNOLIA-GARFIELD",,"33.68718","-117.97132",,,,,
2078,"MAGNOLIA-JAY",,"33.69097","-117.97138",,,,,
2079,"MAGNOLIA-ELLIS",,"33.69358","-117.97146",,,,,
208,"EUCLID-CHALET",,"33.81506","-117.94159",,,,,
2080,"MAGNOLIA-NILE RIVER",,"33.69587","-117.97148",,,,,
2081,"MAGNOLIA-HELM",,"33.69826","-117.97151",,,,,
2082,"MAGNOLIA-TALBERT",,"33.70213","-117.97158",,,,,
2083,"MAGNOLIA-WINDSOR",,"33.70568","-117.97163",,,,,
2084,"MAGNOLIA-SLATER",,"33.70890","-117.97167",,,,,
2085,"MAGNOLIA-LA STELLA",,"33.71126","-117.97168",,,,,
2086,"MAGNOLIA-LA PALOMA",,"33.71293","-117.97172",,,,,
2087,"MAGNOLIA-WARNER",,"33.71632","-117.97177",,,,,
2089,"MAGNOLIA-FOXGLOVE",,"33.72539","-117.97188",,,,,
209,"EUCLID-CERRITOS",,"33.81075","-117.94160",,,,,
2090,"MAGNOLIA-MINT",,"33.72827","-117.97193",,,,,
2091,"MAGNOLIA-WARNER",,"33.71497","-117.97202",,,,,
2092,"MAGNOLIA-LA PALOMA",,"33.71297","-117.97201",,,,,
2093,"MAGNOLIA-LA STELLA",,"33.71038","-117.97197",,,,,
2094,"MAGNOLIA-SLATER",,"33.70821","-117.97194",,,,,
2095,"MAGNOLIA-EL PRESIDENTE",,"33.70500","-117.97190",,,,,
2096,"MAGNOLIA-LA ROCA",,"33.70320","-117.97187",,,,,
2097,"MAGNOLIA-TALBERT",,"33.70038","-117.97181",,,,,
2098,"MAGNOLIA-RHINE RIVER",,"33.69836","-117.97179",,,,,
2099,"MAGNOLIA-NILE RIVER",,"33.69622","-117.97176",,,,,
21,"ANAHEIM-NORTH",,"33.84441","-117.91698",,,,,
210,"EUCLID-CRIS",,"33.80854","-117.94156",,,,,
2100,"MAGNOLIA-ELLIS",,"33.69351","-117.97172",,,,,
2101,"MAGNOLIA-NIGHTINGALE",,"33.68976","-117.97165",,,,,
211,"EUCLID-SALLIE",,"33.80513","-117.94160",,,,,
2119,"NEWHOPE-SOUTHPARK",,"33.70332","-117.93484",,,,,
212,"HARBOR-CHAPMAN",,"33.78971","-117.91478",,,,,
2120,"SLATER-EUCLID",,"33.70902","-117.93666",,,,,
2121,"SLATER-NEWHOPE",,"33.70905","-117.92881",,,,,
2122,"SLATER-NEWHOPE",,"33.70927","-117.92852",,,,,
2123,"SLATER-MOUNT HERRMANN",,"33.70922","-117.93288",,,,,
2124,"TALBERT-NEWLAND",,"33.70113","-117.97996",,,,,
2125,"TALBERT-SANTA CECILIA",,"33.70114","-117.97445",,,,,
2126,"TALBERT-MAGNOLIA",,"33.70118","-117.97108",,,,,
2127,"TALBERT-2ND",,"33.70129","-117.96870",,,,,
2128,"TALBERT-OAK",,"33.70140","-117.96625",,,,,
2129,"TALBERT-BUSHARD",,"33.70156","-117.96224",,,,,
213,"HARBOR-WILKEN",,"33.79336","-117.91488",,,,,
2130,"TALBERT-LEMON",,"33.70159","-117.95839",,,,,
2131,"TALBERT-BROOKHURST",,"33.70156","-117.95554",,,,,
2132,"TALBERT-WARD",,"33.70166","-117.94625",,,,,
2133,"TALBERT-MOUNT SHAY",,"33.70169","-117.94145",,,,,
2134,"TALBERT-EUCLID",,"33.70174","-117.93645",,,,,
2135,"TALBERT-MOUNT WASHINGTON",,"33.70179","-117.93207",,,,,
2136,"TALBERT-MOUNT WASHINGTON",,"33.70206","-117.93290",,,,,
2137,"TALBERT-EUCLID",,"33.70199","-117.93746",,,,,
2138,"TALBERT-LOS TIEMPOS",,"33.70194","-117.94104",,,,,
2139,"TALBERT-WARD",,"33.70192","-117.94604",,,,,
214,"HARBOR-ORANGEWOOD",,"33.79718","-117.91497",,,,,
2140,"TALBERT-BROOKHURST",,"33.70186","-117.95501",,,,,
2142,"TALBERT-CYPRESS",,"33.70182","-117.95879",,,,,
2143,"TALBERT-BUSHARD",,"33.70183","-117.96338",,,,,
2144,"TALBERT-OAK",,"33.70161","-117.96716",,,,,
2145,"TALBERT-MAGNOLIA",,"33.70139","-117.97233",,,,,
2146,"TALBERT-SANTA MARIANA",,"33.70137","-117.97703",,,,,
2147,"TALBERT-NEWLAND",,"33.70136","-117.97995",,,,,
215,"HARBOR-CONVENTION",,"33.80013","-117.91503",,,,,
2153,"WARNER-NEWLAND",,"33.71559","-117.97982",,,,,
2154,"WARNER-ROSS",,"33.71562","-117.97628",,,,,
2155,"WARNER-MAGNOLIA",,"33.71563","-117.97321",,,,,
2156,"WARNER-BUSHARD",,"33.71587","-117.96282",,,,,
2157,"WARNER-GREENLEAF",,"33.71599","-117.95906",,,,,
2158,"WARNER-NECTARINE",,"33.71604","-117.95672",,,,,
2159,"WARNER-BROOKHURST",,"33.71610","-117.95372",,,,,
216,"HARBOR-KATELLA",,"33.80383","-117.91514",,,,,
2160,"WARNER-SAN BRUNO",,"33.71623","-117.94947",,,,,
2161,"WARNER-WARD",,"33.71615","-117.94538",,,,,
2162,"WARNER-LOS JARDINES WEST",,"33.71619","-117.94069",,,,,
2163,"WARNER-EUCLID",,"33.71621","-117.93620",,,,,
2164,"WARNER-MOUNT HOPE",,"33.71623","-117.93347",,,,,
2165,"WARNER-NEWHOPE",,"33.71627","-117.92806",,,,,
2166,"WARNER-WINTERBURG",,"33.71595","-117.92457",,,,,
2167,"WARNER-WINTERBURG",,"33.71638","-117.92484",,,,,
2168,"WARNER-NEWHOPE",,"33.71657","-117.92891",,,,,
2169,"WARNER-MOUNT MARCUS",,"33.71655","-117.93371",,,,,
2170,"WARNER-EUCLID",,"33.71652","-117.93772",,,,,
2171,"WARNER-LOS JARDINES WEST",,"33.71649","-117.94147",,,,,
2172,"WARNER-SAN BRUNO",,"33.71643","-117.94948",,,,,
2173,"WARNER-BROOKHURST",,"33.71642","-117.95506",,,,,
2174,"WARNER-GREENLEAF",,"33.71630","-117.95899",,,,,
2175,"WARNER-BUSHARD",,"33.71619","-117.96197",,,,,
2177,"BEACH-GARDEN GROVE",,"33.77473","-117.99304",,,,,
2178,"BELGRAVE-VALLEY VIEW",,"33.78538","-118.02920",,,,,
2179,"BAILEY-LAURELTON",,"33.78597","-118.03184",,,,,
218,"HARBOR-EAST SHUTTLE AREA",,"33.80988","-117.91521",,,,,
2180,"BAILEY-CHAPMAN",,"33.78827","-118.03213",,,,,
2183,"BROOKHURST-HAZARD",,"33.75273","-117.95476",,,,,
2184,"BROOKHURST-JENNRICH",,"33.75523","-117.95477",,,,,
2185,"BROOKHURST-WESTMINSTER",,"33.76036","-117.95479",,,,,
2186,"BROOKHURST-TRAYLOR",,"33.76242","-117.95486",,,,,
2187,"BROOKHURST-TRASK",,"33.76724","-117.95487",,,,,
2188,"BROOKHURST-CENTRAL",,"33.77085","-117.95489",,,,,
2189,"BROOKHURST-GARDEN GROVE",,"33.77514","-117.95540",,,,,
219,"HARBOR-BALL",,"33.81853","-117.91509",,,,,
2190,"BROOKHURST-STANFORD",,"33.77747","-117.95725",,,,,
2191,"BROOKHURST-LAMPSON",,"33.78164","-117.95843",,,,,
2192,"BROOKHURST-BIXBY",,"33.78418","-117.95848",,,,,
2193,"BROOKHURST-PAVILION PLAZA",,"33.78654","-117.95853",,,,,
2194,"BROOKHURST-CHAPMAN",,"33.78908","-117.95858",,,,,
2195,"BROOKHURST-MCMICHAEL",,"33.79325","-117.95854",,,,,
2196,"BROOKHURST-ORANGEWOOD",,"33.79559","-117.95859",,,,,
2197,"BROOKHURST-BROOKSIDE",,"33.79978","-117.95861",,,,,
2198,"BROOKHURST-KATELLA",,"33.80244","-117.95907",,,,,
2199,"BROOKHURST-DEWEY",,"33.79964","-117.95895",,,,,
22,"ANAHEIM-WILHELMINA",,"33.84171","-117.91610",,,,,
220,"HARBOR-VERMONT",,"33.82169","-117.91531",,,,,
2200,"BROOKHURST-ORANGEWOOD",,"33.79546","-117.95894",,,,,
2201,"BROOKHURST-SKYLARK",,"33.79269","-117.95889",,,,,
2202,"BROOKHURST-CHAPMAN",,"33.78744","-117.95892",,,,,
2203,"BROOKHURST-BIXBY",,"33.78401","-117.95883",,,,,
2204,"BROOKHURST-LAMPSON",,"33.78154","-117.95879",,,,,
2205,"BROOKHURST-STANFORD",,"33.77705","-117.95735",,,,,
2206,"BROOKHURST-GARDEN GROVE",,"33.77356","-117.95526",,,,,
2207,"BROOKHURST-CENTRAL",,"33.77061","-117.95517",,,,,
2208,"BROOKHURST-TRASK",,"33.76630","-117.95525",,,,,
2209,"BROOKHURST-WOODBURY",,"33.76227","-117.95519",,,,,
221,"HARBOR-SOUTH",,"33.82522","-117.91648",,,,,
2210,"BROOKHURST-WESTMINSTER",,"33.75866","-117.95515",,,,,
2211,"BROOKHURST-13TH",,"33.75559","-117.95514",,,,,
2212,"CHAPMAN-VALLEY VIEW",,"33.78828","-118.02751",,,,,
2213,"CHAPMAN-JASPER",,"33.78836","-118.02411",,,,,
2214,"CHAPMAN-SPRINGDALE",,"33.78835","-118.01952",,,,,
2215,"CHAPMAN-LAMPLIGHTER",,"33.78833","-118.01529",,,,,
2216,"CHAPMAN-KNOTT",,"33.78813","-118.01071",,,,,
2217,"CHAPMAN-INDUSTRY",,"33.78814","-118.00761",,,,,
2218,"CHAPMAN-MONARCH",,"33.78825","-118.00604",,,,,
2219,"CHAPMAN-WESTERN",,"33.78817","-118.00186",,,,,
222,"HARBOR-WATER",,"33.82794","-117.91741",,,,,
2220,"CHAPMAN-SANTA ROSALIA",,"33.78821","-117.99785",,,,,
2221,"CHAPMAN-MACNAB",,"33.78831","-117.97808",,,,,
2222,"CHAPMAN-MAGNOLIA",,"33.78834","-117.97486",,,,,
2223,"CHAPMAN-LORALEEN",,"33.78836","-117.97199",,,,,
2224,"CHAPMAN-GILBERT",,"33.78840","-117.96690",,,,,
2225,"CHAPMAN-ENT GARDEN GROVE",,"33.78844","-117.96249",,,,,
2226,"CHAPMAN-BROOKHURST",,"33.78844","-117.95921",,,,,
2228,"CHAPMAN-PARK",,"33.78850","-117.95472",,,,,
223,"HARBOR-SANTA ANA",,"33.83019","-117.91812",,,,,
2230,"CHAPMAN-NUTWOOD",,"33.78857","-117.94973",,,,,
2231,"CHAPMAN-NELSON",,"33.78849","-117.94584",,,,,
2232,"CHAPMAN-EUCLID",,"33.78852","-117.94069",,,,,
2233,"CHAPMAN-LOARA",,"33.78854","-117.93693",,,,,
2234,"CHAPMAN-9TH",,"33.78862","-117.93201",,,,,
2236,"CHAPMAN-JACALENE",,"33.78866","-117.92601",,,,,
2237,"CHAPMAN-WEST",,"33.78866","-117.92300",,,,,
2238,"CHAPMAN-BUARO",,"33.78868","-117.91896",,,,,
2239,"CHAPMAN-HARBOR",,"33.78869","-117.91404",,,,,
224,"HARBOR-BROADWAY",,"33.83174","-117.91863",,,,,
2240,"CHAPMAN-SOMERSET",,"33.78871","-117.91019",,,,,
2241,"CHAPMAN-HASTER",,"33.78873","-117.90507",,,,,
2242,"CHAPMAN-JETTY",,"33.78877","-117.90073",,,,,
2243,"CHAPMAN-HASTER",,"33.78898","-117.90669",,,,,
2244,"CHAPMAN-HARBOR",,"33.78896","-117.91599",,,,,
2245,"CHAPMAN-BUARO",,"33.78893","-117.91900",,,,,
2246,"CHAPMAN-WEST",,"33.78886","-117.92451",,,,,
2247,"CHAPMAN-JACALENE",,"33.78887","-117.92676",,,,,
2249,"CHAPMAN-9TH",,"33.78883","-117.93292",,,,,
225,"HARBOR-LINCOLN",,"33.83363","-117.91915",,,,,
2250,"CHAPMAN-LOARA",,"33.78879","-117.93729",,,,,
2251,"CHAPMAN-EUCLID",,"33.78879","-117.94175",,,,,
2252,"CHAPMAN-MEDINA",,"33.78873","-117.94554",,,,,
2253,"CHAPMAN-NUTWOOD",,"33.78870","-117.95042",,,,,
2254,"CHAPMAN-SEACREST",,"33.78869","-117.95312",,,,,
2256,"CHAPMAN-BROOKHURST",,"33.78866","-117.95980",,,,,
2257,"CHAPMAN-ENT GARDEN GROVE",,"33.78870","-117.96266",,,,,
2258,"CHAPMAN-GILBERT",,"33.78864","-117.96710",,,,,
2259,"CHAPMAN-LORALEEN",,"33.78856","-117.97142",,,,,
2260,"CHAPMAN-MAGNOLIA",,"33.78855","-117.97614",,,,,
2261,"CHAPMAN-MACNAB",,"33.78853","-117.97851",,,,,
2262,"CHAPMAN-DALE",,"33.78852","-117.98464",,,,,
2263,"CHAPMAN-WESTERN",,"33.78842","-118.00210",,,,,
2264,"CHAPMAN-MONARCH",,"33.78840","-118.00645",,,,,
2265,"CHAPMAN-INDUSTRY",,"33.78839","-118.00821",,,,,
2266,"CHAPMAN-KNOTT",,"33.78840","-118.01162",,,,,
2267,"CHAPMAN-LAMPLIGHTER",,"33.78850","-118.01575",,,,,
227,"HARBOR-SYCAMORE",,"33.83846","-117.92087",,,,,
2271,"EUCLID-WESTMINSTER",,"33.76000","-117.93754",,,,,
2272,"EUCLID-WOODBURY",,"33.76319","-117.93758",,,,,
2273,"EUCLID-TRASK",,"33.76733","-117.93762",,,,,
2274,"EUCLID-CENTURY",,"33.76987","-117.93770",,,,,
2275,"EUCLID-SHERMAN",,"33.77208","-117.93777",,,,,
2276,"EUCLID-GARDEN GROVE",,"33.77465","-117.93781",,,,,
2277,"EUCLID-ACACIA",,"33.77635","-117.93786",,,,,
2278,"EUCLID-STANFORD",,"33.77769","-117.93851",,,,,
2279,"EUCLID-COLLEGE",,"33.77933","-117.94044",,,,,
2280,"EUCLID-LAMPSON",,"33.78178","-117.94099",,,,,
2281,"EUCLID-JERRY",,"33.78440","-117.94099",,,,,
2282,"EUCLID-MARIAN",,"33.78673","-117.94102",,,,,
2283,"EUCLID-CHAPMAN",,"33.78942","-117.94110",,,,,
2284,"EUCLID-WAKEFIELD",,"33.79922","-117.94127",,,,,
2285,"EUCLID-KATELLA",,"33.80229","-117.94160",,,,,
2286,"EUCLID-PALMA VISTA",,"33.79923","-117.94155",,,,,
2287,"EUCLID-ORANGEWOOD",,"33.79612","-117.94148",,,,,
2288,"EUCLID-PATRICIA",,"33.79199","-117.94140",,,,,
2289,"EUCLID-CHAPMAN",,"33.78817","-117.94136",,,,,
229,"HARBOR-NORTH",,"33.84328","-117.92240",,,,,
2290,"EUCLID-MARION",,"33.78603","-117.94132",,,,,
2291,"EUCLID-LAMPSON",,"33.78104","-117.94124",,,,,
2292,"EUCLID-MAIN",,"33.77908","-117.94058",,,,,
2293,"EUCLID-STANFORD",,"33.77743","-117.93868",,,,,
2294,"EUCLID-ACACIA",,"33.77543","-117.93815",,,,,
2295,"EUCLID-GARDEN GROVE",,"33.77347","-117.93808",,,,,
2297,"EUCLID-CENTURY",,"33.76890","-117.93798",,,,,
2298,"EUCLID-TRASK",,"33.76648","-117.93796",,,,,
2299,"EUCLID-BLAKE",,"33.76306","-117.93780",,,,,
23,"ANAHEIM-SYCAMORE",,"33.83951","-117.91541",,,,,
2300,"EUCLID-WESTMINSTER",,"33.75918","-117.93780",,,,,
2301,"EUCLID-BUSINESS CENTER",,"33.75496","-117.93778",,,,,
2302,"EUCLID-HAZARD",,"33.75265","-117.93775",,,,,
2303,"FAIRVIEW-GARDEN GROVE",,"33.77353","-117.90311",,,,,
2304,"FAIRVIEW-DOWNIE",,"33.77100","-117.90315",,,,,
2305,"FAIRVIEW-TRASK",,"33.76680","-117.90312",,,,,
2306,"GARDEN GROVE-BEACH",,"33.77366","-117.99364",,,,,
2307,"GARDEN GROVE-COAST",,"33.77368","-117.98962",,,,,
2308,"GARDEN GROVE-MONROE",,"33.77371","-117.98598",,,,,
2309,"GARDEN GROVE-WILSON",,"33.77375","-117.98309",,,,,
231,"HARBOR-LA PALMA",,"33.84700","-117.92369",,,,,
2310,"GARDEN GROVE-JOSEPHINE",,"33.77376","-117.97972",,,,,
2312,"GARDEN GROVE-MAGNOLIA",,"33.77379","-117.97544",,,,,
2313,"GARDEN GROVE-CANNERY",,"33.77382","-117.97211",,,,,
2314,"GARDEN GROVE-CASA LINDA",,"33.77384","-117.96875",,,,,
2315,"GARDEN GROVE-GILBERT",,"33.77385","-117.96655",,,,,
2316,"GARDEN GROVE-GALWAY",,"33.77393","-117.96279",,,,,
2317,"GARDEN GROVE-BROOKHURST WAY",,"33.77390","-117.95789",,,,,
2318,"GARDEN GROVE-BROOKHURST",,"33.77394","-117.95441",,,,,
2319,"GARDEN GROVE-NUTWOOD",,"33.77397","-117.94987",,,,,
232,"HARBOR-CARL KARCHER",,"33.85050","-117.92408",,,,,
2320,"GARDEN GROVE-CENTURY",,"33.77401","-117.94554",,,,,
2321,"GARDEN GROVE-MAIN",,"33.77396","-117.94046",,,,,
2322,"GARDEN GROVE-EUCLID",,"33.77408","-117.93744",,,,,
2323,"GARDEN GROVE-CIVIC CENTER",,"33.77412","-117.93542",,,,,
2324,"GARDEN GROVE-NINA",,"33.77415","-117.93248",,,,,
2325,"GARDEN GROVE-NEWHOPE",,"33.77417","-117.92876",,,,,
2326,"GARDEN GROVE-LEMONWOOD",,"33.77421","-117.92687",,,,,
2327,"GARDEN GROVE-WEST",,"33.77421","-117.92375",,,,,
2328,"GARDEN GROVE-HARBOR",,"33.77426","-117.91935",,,,,
2329,"GARDEN GROVE-RAINBOW",,"33.77428","-117.91731",,,,,
233,"HARBOR-ROMNEYA",,"33.85104","-117.92436",,,,,
2331,"GARDEN GROVE-PARTRIDGE",,"33.77429","-117.91034",,,,,
2333,"GARDEN GROVE-FAIRVIEW",,"33.77430","-117.90260",,,,,
2335,"GARDEN GROVE-LEWIS",,"33.77442","-117.89703",,,,,
2337,"GARDEN GROVE-LEWIS",,"33.77457","-117.89786",,,,,
2338,"GARDEN GROVE-FAIRVIEW",,"33.77458","-117.90170",,,,,
2339,"GARDEN GROVE-HASTER",,"33.77452","-117.90672",,,,,
234,"HARBOR-LA PALMA",,"33.84741","-117.92401",,,,,
2340,"GARDEN GROVE-PARTRIDGE",,"33.77450","-117.91086",,,,,
2341,"GARDEN GROVE-PALM",,"33.77452","-117.91449",,,,,
2342,"GARDEN GROVE-HARBOR",,"33.77451","-117.91900",,,,,
2343,"GARDEN GROVE-WEST",,"33.77446","-117.92396",,,,,
2344,"GARDEN GROVE-LEMONWOOD",,"33.77443","-117.92751",,,,,
2345,"GARDEN GROVE-NEWHOPE",,"33.77440","-117.92951",,,,,
2346,"GARDEN GROVE-9TH",,"33.77438","-117.93258",,,,,
2347,"GARDEN GROVE-CIVIC CENTER",,"33.77431","-117.93603",,,,,
2348,"GARDEN GROVE-EUCLID",,"33.77434","-117.93854",,,,,
2349,"GARDEN GROVE-GROVE",,"33.77424","-117.94187",,,,,
2350,"GARDEN GROVE-NELSON",,"33.77423","-117.94575",,,,,
2351,"GARDEN GROVE-NUTWOOD",,"33.77418","-117.95016",,,,,
2352,"GARDEN GROVE-BROOKHURST",,"33.77415","-117.95557",,,,,
2353,"GARDEN GROVE-BROOKHURST",,"33.77412","-117.95826",,,,,
2354,"GARDEN GROVE-GALWAY",,"33.77411","-117.96281",,,,,
2355,"GARDEN GROVE-GILBERT",,"33.77407","-117.96744",,,,,
2356,"GARDEN GROVE-CASA LINDA",,"33.77408","-117.96913",,,,,
2357,"GARDEN GROVE-LUCILLE",,"33.77407","-117.97336",,,,,
2358,"GARDEN GROVE-MAGNOLIA",,"33.77401","-117.97576",,,,,
2359,"GARDEN GROVE-JOSEPHINE",,"33.77400","-117.97934",,,,,
236,"HARBOR-NORTH",,"33.84308","-117.92261",,,,,
2360,"GARDEN GROVE-DALE",,"33.77397","-117.98438",,,,,
2361,"GARDEN GROVE-FERN",,"33.77394","-117.98808",,,,,
2362,"GARDEN GROVE-BEACH",,"33.77393","-117.99345",,,,,
2363,"GARDEN GROVE-HOOVER",,"33.77388","-117.99845",,,,,
2364,"GARDEN GROVE-WESTERN",,"33.77386","-118.00179",,,,,
2365,"GARDEN GROVE-EAGLE",,"33.77382","-118.00521",,,,,
2366,"GARDEN GROVE-GOLDEN WEST",,"33.77388","-118.00971",,,,,
2367,"HARBOR-WOODBURY",,"33.76398","-117.92018",,,,,
2368,"HARBOR-TRASK",,"33.76604","-117.92020",,,,,
2369,"HARBOR-BANNER",,"33.76963","-117.92023",,,,,
2370,"HARBOR-HARBOR PLACE CENTER",,"33.77207","-117.92022",,,,,
2371,"HARBOR-GARDEN GROVE",,"33.77510","-117.91877",,,,,
2372,"HARBOR-PALM",,"33.77687","-117.91521",,,,,
2373,"HARBOR-LAMPSON",,"33.78117","-117.91473",,,,,
2374,"HARBOR-TWINTREE",,"33.78456","-117.91473",,,,,
2375,"HARBOR-CHAPMAN",,"33.78697","-117.91475",,,,,
2376,"HARBOR-CHAPMAN",,"33.78770","-117.91507",,,,,
2377,"HARBOR-TWINTREE",,"33.78344","-117.91505",,,,,
2378,"HARBOR-LAMPSON",,"33.78125","-117.91504",,,,,
2379,"HARBOR-PALM",,"33.77688","-117.91561",,,,,
238,"HARBOR-SYCAMORE",,"33.83868","-117.92117",,,,,
2380,"HARBOR-BUARO",,"33.77544","-117.91867",,,,,
2381,"HARBOR-GARDEN GROVE",,"33.77340","-117.92064",,,,,
2382,"HARBOR-BANNER",,"33.76953","-117.92048",,,,,
2383,"HARBOR-TRASK",,"33.76661","-117.92053",,,,,
2384,"HARBOR-WOODBURY",,"33.76359","-117.92050",,,,,
2389,"HASTER-CHAPMAN",,"33.78923","-117.90609",,,,,
2390,"HASTER-TILLER",,"33.79205","-117.90618",,,,,
2395,"HAZARD-WARD",,"33.75242","-117.94596",,,,,
2396,"HAZARD-DEANANN",,"33.75237","-117.95037",,,,,
2397,"HAZARD-BROOKHURST",,"33.75236","-117.95470",,,,,
2398,"HAZARD-KERRY",,"33.75229","-117.95942",,,,,
2399,"KATELLA-DALE",,"33.80283","-117.98405",,,,,
24,"ANAHEIM-LINCOLN",,"33.83586","-117.91419",,,,,
240,"HARBOR-LINCOLN",,"33.83377","-117.91962",,,,,
2400,"KATELLA-MACMURRAY",,"33.80301","-117.97845",,,,,
2401,"KATELLA-MAGNOLIA",,"33.80289","-117.97506",,,,,
2402,"KATELLA-GARZA",,"33.80292","-117.97034",,,,,
2403,"KATELLA-GILBERT",,"33.80296","-117.96696",,,,,
2404,"KATELLA-BARCLAY",,"33.80306","-117.96337",,,,,
2405,"KATELLA-BROOKHURST",,"33.80297","-117.95985",,,,,
2406,"KATELLA-DALLAS",,"33.80309","-117.95370",,,,,
2407,"KATELLA-NUTWOOD",,"33.80310","-117.94994",,,,,
2408,"KATELLA-DINO",,"33.80299","-117.94380",,,,,
2409,"KNOTT-ACACIA",,"33.77625","-118.00870",,,,,
241,"HARBOR-BROADWAY",,"33.83158","-117.91876",,,,,
2410,"KNOTT-STANFORD",,"33.77831","-118.01096",,,,,
2411,"KNOTT-LAMPSON",,"33.78146","-118.01105",,,,,
2412,"KNOTT-BELGRAVE",,"33.78537","-118.01102",,,,,
2413,"KNOTT-CHAPMAN",,"33.78798","-118.01103",,,,,
2414,"KNOTT-LEILANI",,"33.79344","-118.01098",,,,,
2415,"KNOTT-ORANGEWOOD",,"33.79602","-118.01097",,,,,
2416,"KNOTT-PATTERSON",,"33.79871","-118.01095",,,,,
2417,"KNOTT-CHAPMAN",,"33.78758","-118.01129",,,,,
2418,"KNOTT-BELGRAVE",,"33.78475","-118.01131",,,,,
2419,"KNOTT-LAMPSON",,"33.78033","-118.01126",,,,,
242,"HARBOR-SANTA ANA",,"33.82994","-117.91833",,,,,
2420,"KNOTT-STANFORD",,"33.77751","-118.01084",,,,,
2421,"KNOTT-ACACIA",,"33.77553","-118.00824",,,,,
2422,"LAMPSON-MANLEY",,"33.78117","-118.04037",,,,,
2423,"LAMPSON-BLACKMER",,"33.78248","-118.03519",,,,,
2424,"LAMPSON-VALLEY VIEW",,"33.78157","-118.02917",,,,,
2425,"LAMPSON-TOPAZ",,"33.78106","-118.02358",,,,,
2426,"LAMPSON-SPRINGDALE",,"33.78093","-118.01962",,,,,
2427,"LAMPSON-LAMPLIGHTER",,"33.78090","-118.01582",,,,,
2429,"LAMPSON-KNOTT",,"33.78089","-118.01054",,,,,
243,"HARBOR-WATER",,"33.82776","-117.91765",,,,,
2430,"LAMPSON-INDUSTRY",,"33.78090","-118.00817",,,,,
2431,"LAMPSON-MONARCH",,"33.78093","-118.00540",,,,,
2436,"LAMPSON-WESTERN",,"33.78112","-118.00167",,,,,
2437,"LAMPSON-MONARCH",,"33.78110","-118.00618",,,,,
2438,"LAMPSON-INDUSTRY",,"33.78114","-118.00813",,,,,
2439,"LAMPSON-KNOTT",,"33.78114","-118.01143",,,,,
244,"HARBOR-SOUTH",,"33.82510","-117.91674",,,,,
2440,"LAMPSON-ENT 6851 PACIFICA",,"33.78117","-118.01413",,,,,
2441,"LAMPSON-LAMPLIGHTER",,"33.78108","-118.01699",,,,,
2442,"LAMPSON-SPRINGDALE",,"33.78118","-118.02041",,,,,
2443,"LAMPSON-TOPAZ",,"33.78144","-118.02819",,,,,
2444,"LAMPSON-VALLEY VIEW",,"33.78238","-118.03021",,,,,
2445,"LAMPSON-BLACKMER",,"33.78275","-118.03591",,,,,
2446,"LAMPSON-MANLEY",,"33.78121","-118.04160",,,,,
2447,"LEWIS-CHAPMAN",,"33.78832","-117.89764",,,,,
2448,"LEWIS-CITY PKWY WEST",,"33.78331","-117.89762",,,,,
2449,"LEWIS-LAMPSON",,"33.78116","-117.89760",,,,,
245,"HARBOR-VERMONT",,"33.82152","-117.91560",,,,,
2450,"LEWIS-EL PRADO",,"33.77618","-117.89734",,,,,
2451,"MAGNOLIA-WESTMINSTER",,"33.75971","-117.97228",,,,,
2452,"MAGNOLIA-MAYS",,"33.76347","-117.97231",,,,,
2453,"MAGNOLIA-TRASK",,"33.76700","-117.97230",,,,,
2454,"MAGNOLIA-IMPERIAL",,"33.76971","-117.97227",,,,,
2455,"MAGNOLIA-GARDEN GROVE",,"33.77432","-117.97517",,,,,
2456,"MAGNOLIA-STANFORD",,"33.77781","-117.97523",,,,,
2457,"MAGNOLIA-LAMPSON",,"33.78157","-117.97529",,,,,
2458,"MAGNOLIA-HEALEY",,"33.78440","-117.97528",,,,,
2459,"MAGNOLIA-CHAPMAN",,"33.78708","-117.97531",,,,,
246,"HARBOR-BALL",,"33.81875","-117.91544",,,,,
2460,"MAGNOLIA-TRISTAN",,"33.79055","-117.97529",,,,,
2461,"MAGNOLIA-SHELLEY",,"33.79418","-117.97537",,,,,
2462,"MAGNOLIA-ORANGEWOOD",,"33.79601","-117.97542",,,,,
2463,"MAGNOLIA-ROSANNA",,"33.79916","-117.97548",,,,,
2464,"MAGNOLIA-KATELLA",,"33.80276","-117.97582",,,,,
2465,"MAGNOLIA-ROSANNA",,"33.79934","-117.97577",,,,,
2466,"MAGNOLIA-ORANGEWOOD",,"33.79516","-117.97572",,,,,
2467,"MAGNOLIA-MACALPINE",,"33.79145","-117.97559",,,,,
2468,"MAGNOLIA-CHAPMAN",,"33.78800","-117.97561",,,,,
2469,"MAGNOLIA-HEALEY",,"33.78468","-117.97557",,,,,
247,"HARBOR-EAST SHUTTLE AREA",,"33.80971","-117.91544",,,,,
2470,"MAGNOLIA-LAMPSON",,"33.78089","-117.97550",,,,,
2471,"MAGNOLIA-STANFORD",,"33.77807","-117.97550",,,,,
2472,"MAGNOLIA-GARDEN GROVE",,"33.77428","-117.97544",,,,,
2473,"MAGNOLIA-IMPERIAL",,"33.77013","-117.97258",,,,,
2474,"MAGNOLIA-TRASK",,"33.76727","-117.97261",,,,,
2475,"MAGNOLIA-MAYS",,"33.76337","-117.97259",,,,,
2476,"MCFADDEN-WARD",,"33.73783","-117.94572",,,,,
2486,"VALLEY VIEW-TIFFANY",,"33.77711","-118.03467",,,,,
2487,"VALLEY VIEW-CERULEAN",,"33.77976","-118.03155",,,,,
2488,"VALLEY VIEW-LAMPSON",,"33.78237","-118.02907",,,,,
2489,"VALLEY VIEW-BELGRAVE",,"33.78521","-118.02829",,,,,
2490,"VALLEY VIEW-CHAPMAN",,"33.78882","-118.02841",,,,,
2491,"VALLEY VIEW-SANTA BARBARA",,"33.79115","-118.02833",,,,,
2492,"VALLEY VIEW-CHAPMAN",,"33.79015","-118.02869",,,,,
2493,"VALLEY VIEW-CHAPMAN",,"33.78802","-118.02868",,,,,
2494,"VALLEY VIEW-BELGRAVE",,"33.78465","-118.02871",,,,,
2495,"VALLEY VIEW-LAMPSON",,"33.78158","-118.02998",,,,,
2496,"VALLEY VIEW-CERULEAN",,"33.77932","-118.03253",,,,,
2497,"VALLEY VIEW-TIFFANY",,"33.77733","-118.03480",,,,,
25,"ANAHEIM-BROADWAY",,"33.83384","-117.91347",,,,,
250,"HARBOR-KATELLA",,"33.80284","-117.91551",,,,,
251,"HARBOR-CONVENTION",,"33.79896","-117.91539",,,,,
2514,"WESTERN-ANTHONY",,"33.77470","-118.00129",,,,,
2515,"WESTERN-ACACIA",,"33.77605","-118.00130",,,,,
2516,"WESTERN-LAMPSON",,"33.78025","-118.00137",,,,,
2517,"WESTERN-LAMPSON",,"33.78067","-118.00149",,,,,
2518,"WESTERN-ENT SUBARU TECHNICAL",,"33.77873","-118.00148",,,,,
2519,"WESTERN-ACACIA",,"33.77576","-118.00153",,,,,
252,"HARBOR-ORANGEWOOD",,"33.79571","-117.91527",,,,,
2520,"WESTMINSTER-BUSHARD",,"33.75936","-117.96326",,,,,
2521,"WESTMINSTER-ERIN",,"33.75938","-117.96081",,,,,
2522,"WESTMINSTER-KERRY",,"33.75947","-117.95842",,,,,
2523,"WESTMINSTER-BROOKHURST",,"33.75942","-117.95437",,,,,
2524,"WESTMINSTER-HOPE",,"33.75945","-117.95038",,,,,
2525,"WESTMINSTER-BOWEN",,"33.75946","-117.94723",,,,,
2526,"WESTMINSTER-LAKE",,"33.75948","-117.94386",,,,,
2527,"WESTMINSTER-TAFT",,"33.75949","-117.94132",,,,,
2528,"WESTMINSTER-CLINTON",,"33.75971","-117.91119",,,,,
2529,"WESTMINSTER-BUENA",,"33.75972","-117.90745",,,,,
253,"HARBOR-WILKEN",,"33.79252","-117.91519",,,,,
2532,"WESTMINSTER-CLINTON",,"33.75992","-117.91207",,,,,
2534,"WESTMINSTER-ENTERPRISE",,"33.75989","-117.91693",,,,,
2535,"WESTMINSTER-HARBOR",,"33.75987","-117.92150",,,,,
2536,"WESTMINSTER-WEST",,"33.75985","-117.92446",,,,,
2538,"WESTMINSTER-NEWHOPE",,"33.75981","-117.92952",,,,,
2540,"WESTMINSTER-ROSITA",,"33.75978","-117.93464",,,,,
2541,"WESTMINSTER-EUCLID",,"33.75973","-117.93848",,,,,
2542,"WESTMINSTER-TAFT",,"33.75971","-117.94180",,,,,
2543,"WESTMINSTER-LAKE",,"33.75969","-117.94449",,,,,
2544,"WESTMINSTER-BOWEN",,"33.75966","-117.94790",,,,,
2545,"WESTMINSTER-DAWSON",,"33.75964","-117.95135",,,,,
2546,"WESTMINSTER-BROOKHURST",,"33.75962","-117.95577",,,,,
2547,"WESTMINSTER-KERRY",,"33.75960","-117.95894",,,,,
2548,"WESTMINSTER-ERIN",,"33.75959","-117.96198",,,,,
2549,"WESTMINSTER-BUSHARD",,"33.75955","-117.96371",,,,,
2550,"WESTMINSTER-ATLANTIS",,"33.75956","-117.96858",,,,,
2551,"WESTMINSTER-MAGNOLIA",,"33.75954","-117.97269",,,,,
2552,"WESTMINSTER-YOCKEY",,"33.75950","-117.97709",,,,,
2553,"17TH-PALM",,"33.67015","-118.00682",,,,,
2555,"17TH-ADAMS",,"33.67308","-118.00382",,,,,
2556,"17TH-MAIN",,"33.67492","-118.00222",,,,,
2557,"17TH-ADAMS",,"33.67318","-118.00401",,,,,
2559,"17TH-PALM",,"33.67021","-118.00705",,,,,
2560,"17TH-PECAN",,"33.66805","-118.00925",,,,,
2561,"1ST-ORANGE",,"33.65755","-117.99767",,,,,
2565,"ADAMS-BEACH",,"33.67204","-117.98776",,,,,
2566,"ADAMS-SEABRIDGE",,"33.67210","-117.98500",,,,,
2567,"ADAMS-NEW BRITAIN",,"33.67205","-117.98300",,,,,
2568,"ADAMS-NEWLAND",,"33.67206","-117.97954",,,,,
2569,"ADAMS-CROWN REEF",,"33.67217","-117.97618",,,,,
2570,"ADAMS-MAGNOLIA",,"33.67210","-117.97057",,,,,
2571,"ADAMS-MARINA",,"33.67213","-117.96678",,,,,
2572,"ADAMS-BUSHARD",,"33.67214","-117.96206",,,,,
2573,"ADAMS-DERBYSHIRE",,"33.67218","-117.95952",,,,,
2574,"ADAMS-BROOKHURST",,"33.67219","-117.95522",,,,,
2575,"ADAMS-BROOKHURST",,"33.67225","-117.95158",,,,,
2576,"ADAMS-LAWSON",,"33.67227","-117.94989",,,,,
2577,"ADAMS-PICADILLAY",,"33.67247","-117.95108",,,,,
2578,"ADAMS-BROOKHURST",,"33.67248","-117.95529",,,,,
2579,"ADAMS-SUTTON",,"33.67245","-117.95804",,,,,
2580,"ADAMS-DERBYSHIRE",,"33.67240","-117.96024",,,,,
2581,"ADAMS-BUSHARD",,"33.67238","-117.96276",,,,,
2582,"ADAMS-LOTUS",,"33.67239","-117.96823",,,,,
2583,"ADAMS-MAGNOLIA",,"33.67239","-117.97230",,,,,
2584,"ADAMS-FELLCLIFF",,"33.67236","-117.97699",,,,,
2585,"ADAMS-NEWLAND",,"33.67236","-117.98054",,,,,
2586,"ADAMS-ROTHERT",,"33.67231","-117.98387",,,,,
2587,"ADAMS-COLDWATER",,"33.67233","-117.98627",,,,,
2592,"ALGONQUIN-DAVENPORT",,"33.71612","-118.05001",,,,,
2593,"ALGONQUIN-PEARCE",,"33.71940","-118.05005",,,,,
2594,"ALGONQUIN-HEIL",,"33.72202","-118.05009",,,,,
2595,"ALGONQUIN-HEIL",,"33.72212","-118.05032",,,,,
2596,"ALGONQUIN-BOARDWALK",,"33.71767","-118.05025",,,,,
2597,"ATLANTA-HUNTINGTON",,"33.65757","-117.99460",,,,,
2598,"ATLANTA-ADMIRAL",,"33.65748","-117.98996",,,,,
2599,"ATLANTA-BEACH",,"33.65752","-117.98704",,,,,
26,"ANAHEIM-SANTA ANA",,"33.83075","-117.91249",,,,,
2600,"ATLANTA-NEWLAND",,"33.65755","-117.97914",,,,,
2601,"ATLANTA-MIRAMAR",,"33.65756","-117.97613",,,,,
2602,"ATLANTA-MAGNOLIA",,"33.65782","-117.97162",,,,,
2603,"ATLANTA-GREENFIELD",,"33.65779","-117.97603",,,,,
2604,"ATLANTA-NEWLAND",,"33.65776","-117.98015",,,,,
2605,"ATLANTA-SCHOONER",,"33.65773","-117.98506",,,,,
2606,"ATLANTA-BEACH",,"33.65771","-117.98909",,,,,
2607,"ATLANTA-DELAWARE",,"33.65772","-117.99226",,,,,
2608,"ATLANTA-HUNTINGTON",,"33.65768","-117.99463",,,,,
2609,"BEACH-PACIFIC COAST",,"33.64898","-117.98808",,,,,
2610,"BEACH-SUNRISE",,"33.65423","-117.98815",,,,,
2611,"BEACH-ATLANTA",,"33.65805","-117.98817",,,,,
2612,"BEACH-INDIANAPOLIS",,"33.66535","-117.98831",,,,,
2613,"BEACH-SEABRIDGE",,"33.66896","-117.98834",,,,,
2614,"BEACH-ADAMS",,"33.67269","-117.98837",,,,,
2615,"BEACH-UTICA",,"33.67628","-117.98844",,,,,
2616,"BEACH-YORKTOWN",,"33.68017","-117.98850",,,,,
2617,"BEACH-CLAY",,"33.68261","-117.98853",,,,,
2618,"BEACH-GARFIELD",,"33.68738","-117.98860",,,,,
2619,"BEACH-GRAZIADIO",,"33.69132","-117.98865",,,,,
262,"KATELLA-EUCLID",,"33.80300","-117.94103",,,,,
2620,"BEACH-ELLIS",,"33.69485","-117.98868",,,,,
2621,"BEACH-TAYLOR",,"33.69742","-117.98891",,,,,
2622,"BEACH-TALBERT",,"33.70168","-117.98899",,,,,
2623,"BEACH-NEWMAN",,"33.70447","-117.98902",,,,,
2624,"BEACH-SLATER",,"33.70786","-117.98906",,,,,
2625,"BEACH-HOLLAND",,"33.71084","-117.98890",,,,,
2626,"BEACH-BLAYLOCK",,"33.71354","-117.98891",,,,,
2627,"BEACH-WARNER",,"33.71673","-117.98895",,,,,
2628,"BEACH-TERRY",,"33.71999","-117.98899",,,,,
2629,"BEACH-STARK",,"33.72786","-117.98940",,,,,
263,"KATELLA-CARNELIAN",,"33.80303","-117.93761",,,,,
2630,"BEACH-MCDONALD",,"33.72538","-117.98935",,,,,
2631,"BEACH-HEIL",,"33.72252","-117.98943",,,,,
2632,"BEACH-TERRY",,"33.71882","-117.98937",,,,,
2633,"BEACH-WARNER",,"33.71498","-117.98936",,,,,
2634,"BEACH-CYPRESS",,"33.71304","-117.98928",,,,,
2635,"BEACH-HOLLAND",,"33.71097","-117.98929",,,,,
2636,"BEACH-SLATER",,"33.70768","-117.98945",,,,,
2637,"BEACH-LIBERTY",,"33.70531","-117.98942",,,,,
2638,"BEACH-TALBERT",,"33.70026","-117.98935",,,,,
2639,"BEACH-TAYLOR",,"33.69717","-117.98924",,,,,
264,"KATELLA-9TH",,"33.80307","-117.93315",,,,,
2640,"BEACH-MAIN",,"33.69315","-117.98907",,,,,
2641,"BEACH-CONSTANTINE",,"33.68923","-117.98901",,,,,
2642,"BEACH-GARFIELD",,"33.68577","-117.98897",,,,,
2643,"BEACH-CLAY",,"33.68273","-117.98891",,,,,
2644,"BEACH-YORKTOWN",,"33.67907","-117.98887",,,,,
2645,"BEACH-UTICA",,"33.67552","-117.98883",,,,,
2646,"BEACH-ADAMS",,"33.67143","-117.98875",,,,,
2647,"BEACH-MEMPHIS",,"33.66882","-117.98874",,,,,
2648,"BEACH-INDIANAPOLIS",,"33.66517","-117.98868",,,,,
2649,"BEACH-SUNSET",,"33.66208","-117.98856",,,,,
265,"KATELLA-CASA VISTA",,"33.80312","-117.92721",,,,,
2650,"BEACH-ATLANTA",,"33.65702","-117.98853",,,,,
2651,"BEACH-SUNRISE",,"33.65390","-117.98842",,,,,
2653,"BOLSA-BOLSA CHICA",,"33.74421","-118.04121",,,,,
2654,"BOLSA-BOLSA CHICA",,"33.74423","-118.03873",,,,,
2655,"BOLSA-GRAHAM",,"33.74433","-118.03506",,,,,
2656,"BOLSA-GRAHAM",,"33.74426","-118.03340",,,,,
2657,"BOLSA-SPRINGDALE",,"33.74430","-118.02318",,,,,
2659,"BOLSA-DRAKE",,"33.74424","-118.01917",,,,,
266,"KATELLA-WEST",,"33.80317","-117.92324",,,,,
2660,"BOLSA-EDWARDS",,"33.74428","-118.01523",,,,,
2661,"BOLSA-VICTORIA",,"33.74436","-118.01059",,,,,
2662,"BOLSA-GOLDEN WEST",,"33.74431","-118.00818",,,,,
2663,"BOLSA-GRAHAM",,"33.74454","-118.03350",,,,,
2664,"BOLSA-ENT 5301 BOEING",,"33.74455","-118.03556",,,,,
2665,"BOLSA-BOLSA CHICA",,"33.74453","-118.03933",,,,,
2666,"BOLSA CHICA-WARNER",,"33.71620","-118.04126",,,,,
2667,"BOLSA CHICA-PEARCE",,"33.71955","-118.04131",,,,,
2668,"BOLSA CHICA-HEIL",,"33.72294","-118.04138",,,,,
2669,"BOLSA CHICA-SISSON",,"33.72710","-118.04143",,,,,
267,"KATELLA-CONVENTION CENTER",,"33.80314","-117.91962",,,,,
2671,"BOLSA CHICA-BOLSA",,"33.74658","-118.04162",,,,,
2672,"BOLSA CHICA-EDINGER",,"33.72943","-118.04180",,,,,
2673,"BOLSA CHICA-OAHU",,"33.72524","-118.04173",,,,,
2674,"BOLSA CHICA-HEIL",,"33.72217","-118.04170",,,,,
2675,"BOLSA CHICA-PEARCE",,"33.71878","-118.04161",,,,,
2676,"BROOKHURST-BUSHARD",,"33.63810","-117.96132",,,,,
2677,"BROOKHURST-ENT COUNTY SANITATION",,"33.64071","-117.95892",,,,,
2678,"BROOKHURST-BANNING",,"33.64335","-117.95646",,,,,
2679,"BROOKHURST-BAYBREEZE",,"33.64580","-117.95467",,,,,
268,"KATELLA-HARBOR",,"33.80314","-117.91479",,,,,
2680,"BROOKHURST-HAMILTON",,"33.64855","-117.95350",,,,,
2681,"BROOKHURST-HAMILTON",,"33.65108","-117.95343",,,,,
2683,"BROOKHURST-EFFINGHAM",,"33.65430","-117.95347",,,,,
2685,"BROOKHURST-ATLANTA",,"33.65873","-117.95355",,,,,
2686,"BROOKHURST-CLIFF",,"33.66184","-117.95359",,,,,
2687,"BROOKHURST-INDIANAPOLIS",,"33.66547","-117.95364",,,,,
2688,"BROOKHURST-STONYBROOK",,"33.66748","-117.95371",,,,,
2689,"BROOKHURST-MEREDITH",,"33.66978","-117.95370",,,,,
269,"KATELLA-CLEMENTINE",,"33.80315","-117.90960",,,,,
2690,"BROOKHURST-ADAMS",,"33.67306","-117.95375",,,,,
2691,"BROOKHURST-CONSTITUTION",,"33.67722","-117.95384",,,,,
2692,"BROOKHURST-YORKTOWN",,"33.67999","-117.95386",,,,,
2693,"BROOKHURST-KAMUELA",,"33.68251","-117.95389",,,,,
2694,"BROOKHURST-KUKUI",,"33.68460","-117.95390",,,,,
2695,"BROOKHURST-GARFIELD",,"33.68633","-117.95428",,,,,
2696,"BROOKHURST-KUKUI",,"33.68427","-117.95423",,,,,
2697,"BROOKHURST-ENT 19361 RANCHO MOBILE",,"33.68187","-117.95420",,,,,
2698,"BROOKHURST-YORKTOWN",,"33.67921","-117.95416",,,,,
2699,"BROOKHURST-CONSTITUTION",,"33.67658","-117.95411",,,,,
27,"ANAHEIM-WATER",,"33.82861","-117.91177",,,,,
270,"KATELLA-HASTER",,"33.80314","-117.90548",,,,,
2700,"BROOKHURST-CONTINENTAL",,"33.67460","-117.95409",,,,,
2701,"BROOKHURST-ADAMS",,"33.67084","-117.95404",,,,,
2702,"BROOKHURST-PECK",,"33.66751","-117.95399",,,,,
2703,"BROOKHURST-INDIANAPOLIS",,"33.66471","-117.95395",,,,,
2704,"BROOKHURST-CLIFF",,"33.66163","-117.95392",,,,,
2706,"BROOKHURST-ATLANTA",,"33.65731","-117.95386",,,,,
2708,"BROOKHURST-VILLA PACIFIC",,"33.65280","-117.95381",,,,,
2709,"BROOKHURST-HAMILTON",,"33.65019","-117.95377",,,,,
271,"KATELLA-LEWIS",,"33.80319","-117.89701",,,,,
2710,"BROOKHURST-HAMILTON",,"33.64797","-117.95400",,,,,
2711,"BROOKHURST-BAYBREEZE",,"33.64511","-117.95538",,,,,
2712,"BROOKHURST-BANNING",,"33.64290","-117.95735",,,,,
2713,"BROOKHURST-ENT COUNTY SANITATION",,"33.64067","-117.95942",,,,,
2714,"BROOKHURST-BUSHARD",,"33.63764","-117.96219",,,,,
2715,"BROOKHURST-PACIFIC COAST",,"33.63466","-117.96413",,,,,
2716,"CENTER-GOTHARD",,"33.73367","-117.99989",,,,,
2717,"CENTER-BELLA TERRA",,"33.73384","-117.99657",,,,,
2718,"CENTER-HUNTINGTON VILLAGE",,"33.73379","-117.99340",,,,,
2719,"CENTER-ONE PACIFIC PLAZA",,"33.73404","-117.99463",,,,,
2720,"CENTER-HUNTINGTON VILLAGE",,"33.73402","-117.99680",,,,,
273,"KATELLA-STATE COLLEGE",,"33.80319","-117.88871",,,,,
274,"KATELLA-HOWELL",,"33.80519","-117.88375",,,,,
2740,"EDINGER-BOLSA CHICA",,"33.72973","-118.04102",,,,,
2741,"EDINGER-WARREN",,"33.72975","-118.03730",,,,,
2742,"EDINGER-GRAHAM",,"33.72977","-118.03292",,,,,
2743,"EDINGER-CLUBHOUSE",,"33.72980","-118.02894",,,,,
2744,"EDINGER-SPRINGDALE",,"33.72983","-118.02524",,,,,
2745,"EDINGER-PLYMOUTH",,"33.72988","-118.02144",,,,,
2746,"EDINGER-STANDISH",,"33.72985","-118.01780",,,,,
2747,"EDINGER-EDWARDS",,"33.72988","-118.01503",,,,,
2748,"EDINGER-BELFAST",,"33.72990","-118.01260",,,,,
2749,"EDINGER-MARJAN",,"33.72992","-118.00957",,,,,
275,"KATELLA-DOUGLASS",,"33.80592","-117.87718",,,,,
2750,"EDINGER-GOLDEN WEST",,"33.72996","-118.00630",,,,,
2752,"EDINGER-GOTHARD",,"33.73000","-117.99980",,,,,
2753,"EDINGER-ENT 7552 CITICORP",,"33.73000","-117.99650",,,,,
2754,"EDINGER-SHER",,"33.73004","-117.99388",,,,,
2755,"EDINGER-PARKSIDE",,"33.73004","-117.99199",,,,,
2756,"EDINGER-NEWLAND",,"33.73013","-117.98276",,,,,
2757,"EDINGER-BEACH",,"33.73033","-117.99041",,,,,
2758,"EDINGER-SHER",,"33.73027","-117.99535",,,,,
2759,"EDINGER-GOTHARD",,"33.73026","-117.99769",,,,,
276,"KATELLA-DOUGLASS",,"33.80625","-117.87693",,,,,
2760,"EDINGER-GOTHARD",,"33.73021","-118.00118",,,,,
2761,"EDINGER-GOLDEN WEST",,"33.73019","-118.00399",,,,,
2762,"EDINGER-GOLDEN WEST",,"33.73017","-118.00732",,,,,
2763,"EDINGER-SHERBECK",,"33.73015","-118.01108",,,,,
2764,"EDINGER-EDWARDS",,"33.73011","-118.01582",,,,,
2765,"EDINGER-STANDISH",,"33.73010","-118.01910",,,,,
2766,"EDINGER-PLYMOUTH",,"33.73007","-118.02250",,,,,
2767,"EDINGER-SPRINGDALE",,"33.73008","-118.02463",,,,,
2768,"EDINGER-CLUBHOUSE",,"33.72999","-118.02898",,,,,
2769,"EDINGER-GRAHAM",,"33.72998","-118.03243",,,,,
277,"KATELLA-HOWELL",,"33.80549","-117.88389",,,,,
2774,"EDWARDS-ROYAL OAK",,"33.74945","-118.01592",,,,,
278,"KATELLA-STATE COLLEGE",,"33.80347","-117.88895",,,,,
2785,"GARFIELD-GOLDEN WEST",,"33.68638","-118.00560",,,,,
2786,"GARFIELD-GOTHARD",,"33.68643","-118.00138",,,,,
2788,"GARFIELD-BEACH",,"33.68660","-117.98743",,,,,
2789,"GARFIELD-SUMMERFIELD",,"33.68660","-117.98297",,,,,
2790,"GARFIELD-NEWLAND",,"33.68659","-117.98045",,,,,
2791,"GARFIELD-PLUM TREE",,"33.68662","-117.97858",,,,,
2792,"GARFIELD-LINDSAY",,"33.68670","-117.97421",,,,,
2793,"GARFIELD-MAGNOLIA",,"33.68662","-117.97062",,,,,
2794,"GARFIELD-RANDI",,"33.68665","-117.96832",,,,,
2795,"GARFIELD-PAULINE",,"33.68666","-117.96530",,,,,
2796,"GARFIELD-BUSHARD",,"33.68667","-117.96230",,,,,
2797,"GARFIELD-PERSIMMON",,"33.68671","-117.95896",,,,,
2798,"GARFIELD-MOUNT WALTON",,"33.68671","-117.95649",,,,,
2799,"GARFIELD-NEWLAND",,"33.68683","-117.98091",,,,,
28,"ANAHEIM-SOUTH",,"33.82642","-117.91105",,,,,
280,"KATELLA-LEWIS",,"33.80345","-117.89901",,,,,
2800,"GARFIELD-MORA-KAI",,"33.68680","-117.98578",,,,,
2805,"GOLDEN WEST-YORKTOWN",,"33.67992","-118.00596",,,,,
2806,"GOLDEN WEST-SUMMIT",,"33.68359","-118.00601",,,,,
2807,"GOLDEN WEST-GARFIELD",,"33.68792","-118.00612",,,,,
2808,"GOLDEN WEST-ERNEST",,"33.68982","-118.00610",,,,,
2809,"GOLDEN WEST-ELLIS",,"33.69432","-118.00617",,,,,
281,"KATELLA-ANAHEIM",,"33.80349","-117.90717",,,,,
2810,"GOLDEN WEST-ENT 7111 HUNTINGTON",,"33.69895","-118.00621",,,,,
2811,"GOLDEN WEST-ENT HUNTINGTON BEACH",,"33.70153","-118.00626",,,,,
2812,"GOLDEN WEST-RIO VISTA",,"33.70526","-118.00629",,,,,
2813,"GOLDEN WEST-SLATER",,"33.70876","-118.00639",,,,,
2814,"GOLDEN WEST-BETTY",,"33.71213","-118.00645",,,,,
2815,"GOLDEN WEST-WARNER",,"33.71620","-118.00645",,,,,
2816,"GOLDEN WEST-NORMA",,"33.71859","-118.00653",,,,,
2817,"GOLDEN WEST-HEIL",,"33.72316","-118.00655",,,,,
2818,"GOLDEN WEST-VALENTINE",,"33.72464","-118.00660",,,,,
2819,"GOLDEN WEST-STONEWOOD",,"33.72760","-118.00665",,,,,
282,"KATELLA-CLEMENTINE",,"33.80348","-117.91131",,,,,
2820,"GOLDEN WEST-EDINGER",,"33.73067","-118.00668",,,,,
2821,"GOLDEN WEST-ENT 15744 GOLDENWEST",,"33.73369","-118.00671",,,,,
2822,"GOLDEN WEST-BOLSA",,"33.74398","-118.00716",,,,,
2824,"GOLDEN WEST-BRUNSWICK",,"33.73976","-118.00710",,,,,
2825,"GOLDEN WEST-MCFADDEN",,"33.73688","-118.00707",,,,,
2826,"GOLDEN WEST-ENT 15744 GOLDENWEST",,"33.73285","-118.00701",,,,,
2827,"GOLDEN WEST-EDINGER",,"33.72939","-118.00695",,,,,
2828,"GOLDEN WEST-LAURELHURST",,"33.72643","-118.00691",,,,,
2829,"GOLDEN WEST-HEIL",,"33.72241","-118.00685",,,,,
283,"KATELLA-HARBOR",,"33.80342","-117.91587",,,,,
2830,"GOLDEN WEST-LYDIA",,"33.71848","-118.00680",,,,,
2831,"GOLDEN WEST-WARNER",,"33.71499","-118.00676",,,,,
2832,"GOLDEN WEST-TUCANA",,"33.71178","-118.00672",,,,,
2834,"GOLDEN WEST-SLATER",,"33.70779","-118.00665",,,,,
2835,"GOLDEN WEST-RIO VISTA",,"33.70467","-118.00660",,,,,
2836,"GOLDEN WEST-ENT HUNTINGTON BEACH",,"33.70049","-118.00657",,,,,
2837,"GOLDEN WEST-ENT 7111 HUNTINGTON",,"33.69874","-118.00656",,,,,
2838,"GOLDEN WEST-ELLIS",,"33.69407","-118.00649",,,,,
2839,"GOLDEN WEST-ERNEST",,"33.68906","-118.00640",,,,,
284,"KATELLA-CONVENTION CENTER",,"33.80347","-117.91920",,,,,
2840,"GOLDEN WEST-GARFIELD",,"33.68599","-118.00635",,,,,
2841,"GOLDEN WEST-SUMMIT",,"33.68263","-118.00633",,,,,
2844,"GOTHARD-TALBERT",,"33.70158","-117.99980",,,,,
2845,"GOTHARD-BELVA",,"33.70504","-117.99986",,,,,
2846,"GOTHARD-EDINGER",,"33.73131","-118.00014",,,,,
2847,"GOTHARD-MCFADDEN",,"33.73717","-117.99935",,,,,
2848,"GOTHARD-CENTER",,"33.73328","-118.00047",,,,,
2849,"GRAHAM-EDINGER",,"33.73033","-118.03260",,,,,
285,"KATELLA-DISNEYLAND",,"33.80343","-117.92453",,,,,
2850,"GRAHAM-RESEARCH",,"33.73451","-118.03257",,,,,
2851,"GRAHAM-MCFADDEN",,"33.73783","-118.03266",,,,,
2853,"GRAHAM-ARGOSY",,"33.74242","-118.03279",,,,,
2855,"GRAHAM-OCEANUS",,"33.74231","-118.03302",,,,,
2856,"GRAHAM-BUSINESS",,"33.73895","-118.03295",,,,,
2857,"GRAHAM-MCFADDEN",,"33.73676","-118.03287",,,,,
2858,"GRAHAM-RESEARCH",,"33.73369","-118.03283",,,,,
2859,"GRAHAM-EDINGER",,"33.73038","-118.03283",,,,,
286,"KATELLA-WALNUT",,"33.80334","-117.92878",,,,,
2861,"HAMILTON-MAGNOLIA",,"33.65038","-117.97045",,,,,
2862,"HAMILTON-POLYNESIAN",,"33.65038","-117.96856",,,,,
2863,"HAMILTON-LEHUA",,"33.65038","-117.96418",,,,,
2864,"HAMILTON-BUSHARD",,"33.65039","-117.96177",,,,,
2865,"HAMILTON-VIA STRAITS",,"33.65047","-117.95850",,,,,
2866,"HAMILTON-BROOKHURST",,"33.65049","-117.95264",,,,,
2867,"HAMILTON-BROOKHURST",,"33.65068","-117.95448",,,,,
2868,"HAMILTON-VIA STRAITS",,"33.65065","-117.95919",,,,,
2869,"HAMILTON-BUSHARD",,"33.65064","-117.96278",,,,,
287,"KATELLA-9TH",,"33.80338","-117.93249",,,,,
2870,"HAMILTON-NORTHSHORE",,"33.65062","-117.96500",,,,,
2871,"HAMILTON-POLYNESIAN",,"33.65059","-117.96906",,,,,
2872,"HEIL-LE GRANDE",,"33.72250","-118.04762",,,,,
2873,"HEIL-WATERWAY",,"33.72252","-118.04422",,,,,
2874,"HEIL-BOLSA CHICA",,"33.72266","-118.04225",,,,,
2875,"HEIL-WATERWAY",,"33.72268","-118.04500",,,,,
2876,"HEIL-LA VILLA",,"33.72266","-118.04756",,,,,
2877,"HUNTINGTON-PACIFIC COAST",,"33.65346","-117.99518",,,,,
2878,"MAGNOLIA-PACIFIC COAST",,"33.64058","-117.97299",,,,,
2879,"MAGNOLIA-BANNING",,"33.64358","-117.97096",,,,,
288,"KATELLA-EUCLID",,"33.80330","-117.94234",,,,,
2880,"MAGNOLIA-BERMUDA",,"33.64676","-117.97081",,,,,
2881,"MAGNOLIA-HAMILTON",,"33.65086","-117.97084",,,,,
2882,"MAGNOLIA-STILWELL",,"33.65433","-117.97088",,,,,
2883,"MAGNOLIA-ATLANTA",,"33.65815","-117.97094",,,,,
2884,"MAGNOLIA-CARROLLTOWN",,"33.66119","-117.97098",,,,,
2886,"MAGNOLIA-INDIANAPOLIS",,"33.66538","-117.97103",,,,,
2887,"MAGNOLIA-VILLAGE",,"33.66742","-117.97107",,,,,
2888,"MAGNOLIA-MEDITERRANEAN",,"33.66956","-117.97108",,,,,
2889,"MAGNOLIA-ADAMS",,"33.67294","-117.97113",,,,,
289,"KATELLA-HUMOR",,"33.80325","-117.94502",,,,,
2890,"MAGNOLIA-PIONEER",,"33.67498","-117.97115",,,,,
2891,"MAGNOLIA-MADELINE",,"33.67655","-117.97118",,,,,
2892,"MAGNOLIA-YORKTOWN",,"33.67985","-117.97123",,,,,
2893,"MAGNOLIA-MOORPARK",,"33.68152","-117.97125",,,,,
2894,"MAGNOLIA-HYDE PARK",,"33.68358","-117.97129",,,,,
2895,"MAGNOLIA-GARFIELD",,"33.68630","-117.97161",,,,,
2896,"MAGNOLIA-HYDE PARK",,"33.68381","-117.97157",,,,,
2897,"MAGNOLIA-SEAHURST",,"33.68204","-117.97155",,,,,
2898,"MAGNOLIA-YORKTOWN",,"33.67911","-117.97151",,,,,
2899,"MAGNOLIA-MADELINE",,"33.67712","-117.97148",,,,,
290,"KATELLA-NUTWOOD",,"33.80324","-117.94941",,,,,
2900,"MAGNOLIA-PIONEER",,"33.67451","-117.97144",,,,,
2901,"MAGNOLIA-ADAMS",,"33.67157","-117.97139",,,,,
2902,"MAGNOLIA-MEDITERRANEAN",,"33.66947","-117.97136",,,,,
2903,"MAGNOLIA-BEDEL",,"33.66735","-117.97132",,,,,
2904,"MAGNOLIA-INDIANAPOLIS",,"33.66455","-117.97131",,,,,
2905,"MAGNOLIA-CARROLLTOWN",,"33.66094","-117.97125",,,,,
2906,"MAGNOLIA-ATLANTA",,"33.65731","-117.97121",,,,,
2908,"MAGNOLIA-HAMILTON",,"33.65276","-117.97115",,,,,
2909,"MAGNOLIA-HAMILTON",,"33.65071","-117.97112",,,,,
291,"KATELLA-DALLAS",,"33.80324","-117.95377",,,,,
2910,"MAGNOLIA-BERMUDA",,"33.64624","-117.97110",,,,,
2911,"MAGNOLIA-BANNING",,"33.64317","-117.97155",,,,,
2912,"MAGNOLIA-PACIFIC COAST",,"33.63916","-117.97362",,,,,
2913,"MAIN-ACACIA",,"33.66277","-117.99885",,,,,
2914,"MAIN-CREST",,"33.66655","-117.99984",,,,,
2915,"MAIN-12TH",,"33.66864","-118.00073",,,,,
2917,"MAIN-ADAMS",,"33.67224","-118.00145",,,,,
2919,"MAIN-UTICA",,"33.67601","-118.00148",,,,,
292,"KATELLA-BROOKHURST",,"33.80323","-117.95858",,,,,
2920,"MAIN-YORKTOWN",,"33.67829","-118.00152",,,,,
2921,"MAIN-GARFIELD",,"33.68710","-117.99700",,,,,
2922,"MAIN-HUNTINGTON",,"33.68892","-117.99484",,,,,
2923,"MAIN-DELAWARE",,"33.69059","-117.99290",,,,,
2924,"MAIN-FLORIDA",,"33.69233","-117.99086",,,,,
2925,"MAIN-ELLIS",,"33.69312","-117.99045",,,,,
2926,"MAIN-FLORIDA",,"33.69212","-117.99163",,,,,
2927,"MAIN-DELAWARE",,"33.69037","-117.99362",,,,,
2928,"MAIN-HUNTINGTON",,"33.68911","-117.99510",,,,,
2929,"MAIN-GARFIELD",,"33.68542","-117.99946",,,,,
293,"KNOTT-THORNTON",,"33.81341","-118.01064",,,,,
2930,"MAIN-GOTHARD",,"33.68276","-118.00111",,,,,
2931,"MAIN-YORKTOWN",,"33.67884","-118.00187",,,,,
2932,"MAIN-17TH",,"33.67497","-118.00176",,,,,
2933,"MAIN-ADAMS",,"33.67184","-118.00173",,,,,
2935,"MAIN-11TH",,"33.66817","-118.00074",,,,,
2936,"MAIN-CREST",,"33.66600","-117.99982",,,,,
2937,"MAIN-7TH",,"33.66384","-117.99907",,,,,
294,"KNOTT-BALL",,"33.81786","-118.01069",,,,,
2940,"MCFADDEN-COMPUTER",,"33.73711","-118.02930",,,,,
2941,"MCFADDEN-PRODUCT",,"33.73713","-118.02713",,,,,
2942,"MCFADDEN-SPRINGDALE",,"33.73709","-118.02486",,,,,
2943,"MCFADDEN-LA SALLE",,"33.73713","-118.01956",,,,,
2944,"MCFADDEN-EDWARDS",,"33.73717","-118.01500",,,,,
2945,"MCFADDEN-DAWSON",,"33.73720","-118.00975",,,,,
2946,"MCFADDEN-GOLDEN WEST",,"33.73722","-118.00560",,,,,
2947,"MCFADDEN-VASSAR",,"33.73723","-118.00299",,,,,
2948,"MCFADDEN-GRAHAM",,"33.73709","-118.03224",,,,,
2949,"MCFADDEN-GOTHARD",,"33.73731","-117.99838",,,,,
295,"KNOTT-ROME",,"33.82032","-118.01071",,,,,
2950,"MCFADDEN-GOLDENWEST",,"33.73748","-118.00752",,,,,
2951,"MCFADDEN-VICTORIA",,"33.73743","-118.01150",,,,,
2952,"MCFADDEN-EDWARDS",,"33.73741","-118.01619",,,,,
2953,"MCFADDEN-LA SALLE",,"33.73739","-118.01900",,,,,
2954,"MCFADDEN-HOLIDAY",,"33.73731","-118.02166",,,,,
2955,"MCFADDEN-SPRINGDALE",,"33.73735","-118.02503",,,,,
